{
    "kmb_stops": {
        "18492910339410B1": {
            "name_en": "CHUK YUEN ESTATE BUS TERMINUS",
            "lat": "22.345415",
            "long": "114.192640"
        },
        "9ED7E93749ABAE67": {
            "name_en": "RAINBOW PRIMARY SCHOOL",
            "lat": "22.345076",
            "long": "114.190023"
        },
        "9583BCF159B682BA": {
            "name_en": "MA CHAI HANG RECREATION GROUND",
            "lat": "22.344296",
            "long": "114.187763"
        },
        "D360B3EBF155C15A": {
            "name_en": "MORSE PARK",
            "lat": "22.339876",
            "long": "114.189506"
        },
        "713BF17AF24FE4DA": {
            "name_en": "MORSE PARK SPORTS CENTRE",
            "lat": "22.338347",
            "long": "114.189704"
        },
        "7C4E16F4A138B142": {
            "name_en": "WAI TUNG HOUSE",
            "lat": "22.335816",
            "long": "114.191616"
        },
        "A47333D8B495F77D": {
            "name_en": "YING TUNG HOUSE",
            "lat": "22.334044",
            "long": "114.191109"
        },
        "946C74E30100FE80": {
            "name_en": "KOWLOON WALLED CITY PARK",
            "lat": "22.332261",
            "long": "114.187981"
        },
        "C8203D267CECF949": {
            "name_en": "CARPENTER ROAD",
            "lat": "22.330135",
            "long": "114.187112"
        },
        "DB581AD59964EA41": {
            "name_en": "PRINCE EDWARD ROAD WEST",
            "lat": "22.328025",
            "long": "114.187038"
        },
        "9DBBC71CB1578A87": {
            "name_en": "LA SALLE ROAD",
            "lat": "22.326473",
            "long": "114.183159"
        },
        "312CD2A987AA2773": {
            "name_en": "EARL STREET",
            "lat": "22.325975",
            "long": "114.180423"
        },
        "40E8A4AA35AEB18A": {
            "name_en": "KNIGHT STREET",
            "lat": "22.325359",
            "long": "114.176886"
        },
        "60F1DDDCB555E319": {
            "name_en": "DIOCESAN BOYS' SCHOOL",
            "lat": "22.324949",
            "long": "114.174484"
        },
        "65B934D14EA190F1": {
            "name_en": "HEEP WOH PRIMARY SCHOOL",
            "lat": "22.324613",
            "long": "114.172570"
        },
        "F7CAA2D4FF9D61F7": {
            "name_en": "PRINCE EDWARD STATION",
            "lat": "22.324126",
            "long": "114.169855"
        },
        "6AB438AD3AE100DD": {
            "name_en": "NELSON STREET MONG KOK (S16)",
            "lat": "22.318603",
            "long": "114.169603"
        },
        "456320D47FFB5B1A": {
            "name_en": "SOY STREET MONG KOK (S24)",
            "lat": "22.316174",
            "long": "114.170140"
        },
        "5EEA801CA265E5C1": {
            "name_en": "WING SING LANE YAU MA TEI (S33)",
            "lat": "22.311527",
            "long": "114.171044"
        },
        "5241470E37FA628F": {
            "name_en": "CHEONG LOK STREET YAU MA TEI (S43)",
            "lat": "22.306710",
            "long": "114.171641"
        },
        "A6AED77D365E7011": {
            "name_en": "TAK SHING STREET TSIM SHA TSUI (S46)",
            "lat": "22.304530",
            "long": "114.171826"
        },
        "1DEB855D55528B03": {
            "name_en": "CAMERON ROAD (S51), KOWLOON MOSQUE",
            "lat": "22.298979",
            "long": "114.172114"
        },
        "11A1269F9B78F269": {
            "name_en": "TSIM SHA TSUI BBI - MIDDLE ROAD (S53)",
            "lat": "22.295877",
            "long": "114.172442"
        },
        "E507F6160447C129": {
            "name_en": "HONG KONG CULTURAL CENTRE",
            "lat": "22.294519",
            "long": "114.171217"
        },
        "C88E34E485B43EFB": {
            "name_en": "STAR FERRY, HARBOUR CITY",
            "lat": "22.294304",
            "long": "114.169112"
        },
        "AB057A63C24E990E": {
            "name_en": "TSIM SHA TSUI BBI - MIDDLE ROAD (N3)",
            "lat": "22.296050",
            "long": "114.172172"
        },
        "2946BA6CACA326DF": {
            "name_en": "KIMBERLEY ROAD (N12)",
            "lat": "22.300018",
            "long": "114.171904"
        },
        "6C34AE386C779E0B": {
            "name_en": "BOWRING STREET (N22), PRUDENTIAL CENTRE",
            "lat": "22.304695",
            "long": "114.171587"
        },
        "3C9C928E1674AB98": {
            "name_en": "KOWLOON CENTRAL POST OFFICE (N36)",
            "lat": "22.309296",
            "long": "114.171138"
        },
        "775FC7E2B86C4E3F": {
            "name_en": "MAN MING LANE YAU MA TEI (N40)",
            "lat": "22.311068",
            "long": "114.170860"
        },
        "01A56227D21AFB04": {
            "name_en": "CHEUNG SHA STREET MONG KOK (N52) SINO CENTRE",
            "lat": "22.315797",
            "long": "114.169950"
        },
        "221A18C37331E6FD": {
            "name_en": "NELSON STREET MONG KOK (N65)",
            "lat": "22.318521",
            "long": "114.169408"
        },
        "3C50188583DABFC8": {
            "name_en": "HK & KLN CHIU CHOW SCHOOL, SAI YEE ST",
            "lat": "22.321874",
            "long": "114.171093"
        },
        "EA59A314ABB9386E": {
            "name_en": "QUEEN ELIZABETH SCHOOL, SAI YEE ST",
            "lat": "22.323508",
            "long": "114.170771"
        },
        "1D70AD74F1C97404": {
            "name_en": "PRINCE EDWARD STATION",
            "lat": "22.324645",
            "long": "114.169348"
        },
        "6045969736940272": {
            "name_en": "FA HUI PARK",
            "lat": "22.326866",
            "long": "114.173105"
        },
        "F851B0B122F38CCC": {
            "name_en": "CARITAS DORMITORY PRINCE EDWARD",
            "lat": "22.326955",
            "long": "114.176894"
        },
        "C4F65410A7A2E8B6": {
            "name_en": "LA SALLE PRIMARY SCHOOL",
            "lat": "22.327132",
            "long": "114.180671"
        },
        "1E58DF8CAD59712E": {
            "name_en": "ST. TERESA'S HOSPITAL",
            "lat": "22.327382",
            "long": "114.185584"
        },
        "FD45CEE7D2E4A9BF": {
            "name_en": "NGA TSIN WAI ROAD",
            "lat": "22.328490",
            "long": "114.186330"
        },
        "C6F9EC39B9F09F32": {
            "name_en": "DUMBARTON ROAD",
            "lat": "22.330563",
            "long": "114.186481"
        },
        "0021600EF3DBEF94": {
            "name_en": "KOWLOON WALLED CITY PARK",
            "lat": "22.332460",
            "long": "114.188921"
        },
        "26DE86F5E667C410": {
            "name_en": "MEI TUNG HOUSE",
            "lat": "22.333067",
            "long": "114.190213"
        },
        "B8626845E031C9CF": {
            "name_en": "MORSE PARK OPEN-AIR THEATRE",
            "lat": "22.336181",
            "long": "114.191437"
        },
        "E1EAFF3759608D41": {
            "name_en": "HONG KEUNG COURT",
            "lat": "22.337390",
            "long": "114.190305"
        },
        "F2794804DD8799B4": {
            "name_en": "WANG YIP HOUSE",
            "lat": "22.340330",
            "long": "114.189207"
        },
        "CEACD1DF9F00EF44": {
            "name_en": "TIN WANG COURT",
            "lat": "22.344413",
            "long": "114.187669"
        },
        "6E410E80F8C9915B": {
            "name_en": "RAINBOW PRIMARY SCHOOL",
            "lat": "22.345294",
            "long": "114.189927"
        },
        "A3ADFCDF8487ADB9": {
            "name_en": "SAU MAU PING (CENTRAL)",
            "lat": "22.318856",
            "long": "114.231353"
        },
        "6F106FD26B684372": {
            "name_en": "SAU ON HOUSE",
            "lat": "22.316738",
            "long": "114.233354"
        },
        "26305AF62FBEE2BC": {
            "name_en": "SAU MING HOUSE",
            "lat": "22.315095",
            "long": "114.234630"
        },
        "A8CE52F4450FE939": {
            "name_en": "LEUNG SHEK CHEE COLLEGE",
            "lat": "22.315549",
            "long": "114.232908"
        },
        "41E81A921D79F375": {
            "name_en": "HIU LAI COURT",
            "lat": "22.318714",
            "long": "114.229840"
        },
        "04B6438688E12AC0": {
            "name_en": "CHEUNG WO COURT",
            "lat": "22.319803",
            "long": "114.227405"
        },
        "AE2A9F719AB5E353": {
            "name_en": "WO LOK ESTATE",
            "lat": "22.317004",
            "long": "114.226686"
        },
        "B7773ED8D2FC08E5": {
            "name_en": "YUE MAN SQUARE",
            "lat": "22.313816",
            "long": "114.224041"
        },
        "B9560CB9F6044374": {
            "name_en": "KWUN TONG BBI - MILLENNIUM CITY (B7)",
            "lat": "22.313895",
            "long": "114.221908"
        },
        "7380707A36C032B9": {
            "name_en": "TING FU STREET, KWUN TONG",
            "lat": "22.316142",
            "long": "114.216218"
        },
        "52AE04E9C3E77BE1": {
            "name_en": "LOWER NGAU TAU KOK ESTATE",
            "lat": "22.320039",
            "long": "114.214468"
        },
        "C2AA10A9751D3692": {
            "name_en": "TELFORD GARDENS",
            "lat": "22.322128",
            "long": "114.214269"
        },
        "8570495BD7C63C02": {
            "name_en": "KOWLOON BAY  STATION",
            "lat": "22.324805",
            "long": "114.214033"
        },
        "0A87C29A2B460C96": {
            "name_en": "KAI YIP ESTATE",
            "lat": "22.330394",
            "long": "114.209803"
        },
        "ED5554C57CF0061C": {
            "name_en": "RICHLAND GARDENS",
            "lat": "22.332530",
            "long": "114.206872"
        },
        "4D9419874306D82F": {
            "name_en": "RHYTHM GARDEN",
            "lat": "22.334909",
            "long": "114.201967"
        },
        "D625B0997C3DBCFE": {
            "name_en": "THE LATITUDE",
            "lat": "22.332000",
            "long": "114.196917"
        },
        "904DEAF7441E3BB8": {
            "name_en": "KOWLOON CITY BBI - REGAL ORIENTAL HOTEL (B5)",
            "lat": "22.327305",
            "long": "114.190821"
        },
        "3161D898CD89AA38": {
            "name_en": "HAU WONG ROAD",
            "lat": "22.327437",
            "long": "114.188845"
        },
        "DCFF4041D0C0ACF8": {
            "name_en": "STAR FERRY, HARBOUR CITY",
            "lat": "22.293816",
            "long": "114.168797"
        },
        "8D804CFD9C7B9042": {
            "name_en": "STAR FERRY, HARBOUR CITY",
            "lat": "22.294321",
            "long": "114.169189"
        },
        "AB0E13408BFA1055": {
            "name_en": "PRINCE EDWARD STATION",
            "lat": "22.324645",
            "long": "114.169348"
        },
        "2FA93329F924968F": {
            "name_en": "BEVERLY VILLAS",
            "lat": "22.327265",
            "long": "114.182745"
        },
        "12B08A64756B780B": {
            "name_en": "HAU WONG ROAD",
            "lat": "22.327760",
            "long": "114.188940"
        },
        "0AB522DFFCD4CD4F": {
            "name_en": "KOWLOON CITY BBI - REGAL ORIENTAL HOTEL (A6)",
            "lat": "22.329126",
            "long": "114.192519"
        },
        "7210357910C44570": {
            "name_en": "THE LATITUDE",
            "lat": "22.333055",
            "long": "114.196691"
        },
        "A1C65E46464147A0": {
            "name_en": "RHYTHM GARDEN",
            "lat": "22.335085",
            "long": "114.201694"
        },
        "100E6F60BAC1BDEB": {
            "name_en": "PING SHEK ESTATE",
            "lat": "22.333185",
            "long": "114.207227"
        },
        "23AF5995FEBCA8E6": {
            "name_en": "KAI YIP ESTATE",
            "lat": "22.330675",
            "long": "114.210388"
        },
        "8C09B3648DCDAF3C": {
            "name_en": "KOWLOON BAY STATION (EKCC)",
            "lat": "22.325547",
            "long": "114.214339"
        },
        "D530D698BC181839": {
            "name_en": "LOWER NGAU TAU KOK ESTATE",
            "lat": "22.321874",
            "long": "114.214633"
        },
        "4D3C6D74F6AE8C7D": {
            "name_en": "KWUN TONG ROAD SITTING-OUT AREA",
            "lat": "22.317953",
            "long": "114.215055"
        },
        "9627881F2180C5AB": {
            "name_en": "MILLENNIUM CITY (U4)",
            "lat": "22.314414",
            "long": "114.221390"
        },
        "2437897A21642D85": {
            "name_en": "KWUN TONG BBI - KWUN TONG TOWN CENTRE (T3)",
            "lat": "22.313063",
            "long": "114.224870"
        },
        "17A8BC1197F76422": {
            "name_en": "WO LOK ESTATE",
            "lat": "22.316165",
            "long": "114.226172"
        },
        "D3FEF85E4DAEEE4E": {
            "name_en": "SAU NGA ROAD PLAYGROUND",
            "lat": "22.320222",
            "long": "114.228251"
        },
        "C3201264CC8E5C5D": {
            "name_en": "HIU LAI COURT",
            "lat": "22.319078",
            "long": "114.229349"
        },
        "C8830886D41FB5FA": {
            "name_en": "HIU KWONG STREET RECREATION GROUND",
            "lat": "22.317021",
            "long": "114.231554"
        },
        "D9ABBD996944C4D3": {
            "name_en": "LEUNG SHEK CHEE COLLEGE",
            "lat": "22.314896",
            "long": "114.233811"
        },
        "D17050E8964504BB": {
            "name_en": "SAU MING HOUSE",
            "lat": "22.315934",
            "long": "114.233922"
        },
        "04DDF4F7F1C74876": {
            "name_en": "SAU FU HOUSE",
            "lat": "22.317096",
            "long": "114.232170"
        },
        "5E2EC7476D55E0BA": {
            "name_en": "STAR FERRY, HARBOUR CITY",
            "lat": "22.294304",
            "long": "114.169112"
        },
        "68106C827BF891AB": {
            "name_en": "KOWLOON MOSQUE (N9)",
            "lat": "22.298819",
            "long": "114.171954"
        },
        "20D0C9CBE2BC9451": {
            "name_en": "BOWRING STREET (N21), PRUDENTIAL CENTRE",
            "lat": "22.304634",
            "long": "114.171578"
        },
        "EBB057754E3423CE": {
            "name_en": "NANKING STREET (N25) JORDAN STATION",
            "lat": "22.306382",
            "long": "114.171414"
        },
        "A8E63F70F386C05A": {
            "name_en": "MAN MING LANE YAU MA TEI (N44)",
            "lat": "22.311527",
            "long": "114.170785"
        },
        "E173F2DA030C6AAB": {
            "name_en": "PITT STREET YAU MA TEI (N49)",
            "lat": "22.314146",
            "long": "114.170265"
        },
        "6E2A7A2CD29F9216": {
            "name_en": "NELSON STREET MONG KOK (N60)",
            "lat": "22.317813",
            "long": "114.169549"
        },
        "30FEA8A7071EDE48": {
            "name_en": "BUTE STREET (N72), PIONEER CENTRE",
            "lat": "22.321778",
            "long": "114.168699"
        },
        "557B9185722A07DB": {
            "name_en": "TONG MI ROAD MONG KOK",
            "lat": "22.324403",
            "long": "114.165727"
        },
        "DBAAC5A97DAFD138": {
            "name_en": "SHEK KIP MEI STREET",
            "lat": "22.326937",
            "long": "114.162385"
        },
        "6A6E44D4207221C1": {
            "name_en": "KWEILIN STREET SHAM SHUI PO",
            "lat": "22.328589",
            "long": "114.160248"
        },
        "6156B488BEB726C6": {
            "name_en": "SHAM SHUI PO PARK",
            "lat": "22.330675",
            "long": "114.157715"
        },
        "A8762A74241E8027": {
            "name_en": "LAI KOK ESTATE",
            "lat": "22.333118",
            "long": "114.155983"
        },
        "667FDF4DEF4D2BAE": {
            "name_en": "CHEUNG SHA WAN STATION",
            "lat": "22.335413",
            "long": "114.157855"
        },
        "63B3694BF40FBEC6": {
            "name_en": "PO HEI COURT",
            "lat": "22.337426",
            "long": "114.159322"
        },
        "F54744E6F5CDBC1A": {
            "name_en": "BEGONIA HOUSE, SO UK ESTATE",
            "lat": "22.340113",
            "long": "114.157544"
        },
        "7605CC9BA97A5F61": {
            "name_en": "CHEUNG SHA WAN (SO UK ESTATE) BUS TERMINUS",
            "lat": "22.341085",
            "long": "114.158665"
        },
        "1B710D8F35AF94E7": {
            "name_en": "KEI OI PRIMARY SCHOOL",
            "lat": "22.339400",
            "long": "114.160575"
        },
        "76D5C1E2B23E8743": {
            "name_en": "TONKIN STREET",
            "lat": "22.336993",
            "long": "114.159665"
        },
        "587ACF2E1135D8B6": {
            "name_en": "CHEUNG SHA WAN STATION",
            "lat": "22.335046",
            "long": "114.157997"
        },
        "E3B464760B6ADF30": {
            "name_en": "LAI KOK ESTATE",
            "lat": "22.333467",
            "long": "114.156602"
        },
        "ADA4B4F4B604885B": {
            "name_en": "LAI LO HOUSE LAI KOK ESTATE",
            "lat": "22.331656",
            "long": "114.156667"
        },
        "2CAFD3D60CAA7F5B": {
            "name_en": "PEI HO STREET SHAM SHUI PO",
            "lat": "22.328783",
            "long": "114.160429"
        },
        "B577AC1835FA7995": {
            "name_en": "SHEK KIP MEI STREET",
            "lat": "22.327234",
            "long": "114.162427"
        },
        "2F4939964761E1FF": {
            "name_en": "POPLAR STREET SHAM SHUI PO",
            "lat": "22.324793",
            "long": "114.165560"
        },
        "1030A4E612B75901": {
            "name_en": "ARRAN STREET MONG KOK",
            "lat": "22.323315",
            "long": "114.167469"
        },
        "36AABE317D2F7A0B": {
            "name_en": "PITT STREET YAU MA TEI (S30)",
            "lat": "22.313592",
            "long": "114.170657"
        },
        "CD7C28BDF71C00D7": {
            "name_en": "TAK SHING STREET TSIM SHA TSUI (S44)",
            "lat": "22.304279",
            "long": "114.171799"
        },
        "BA95025DE2FB9878": {
            "name_en": "LOK WAH BUS TERMINUS",
            "lat": "22.320944",
            "long": "114.220499"
        },
        "C9F3531BB5050372": {
            "name_en": "LOK NGA COURT",
            "lat": "22.321831",
            "long": "114.220956"
        },
        "F140654A12BA066A": {
            "name_en": "NGAU TAU KOK BUS TERMINUS",
            "lat": "22.323044",
            "long": "114.216814"
        },
        "44DE41D495197976": {
            "name_en": "AMOY GARDENS",
            "lat": "22.324482",
            "long": "114.215384"
        },
        "E9468D2AE13C3F39": {
            "name_en": "KOWLOON CITY BBI - REGAL ORIENTAL HOTEL (B2)",
            "lat": "22.327473",
            "long": "114.191106"
        },
        "EC45A4372B661DDE": {
            "name_en": "ARGYLE STREET PLAYGROUND",
            "lat": "22.326589",
            "long": "114.188776"
        },
        "D7EDDEA5A942843B": {
            "name_en": "KOWLOON CITY POLICE STATION",
            "lat": "22.324574",
            "long": "114.185031"
        },
        "A7F679945ED1DB31": {
            "name_en": "THE ASTRID",
            "lat": "22.323148",
            "long": "114.182050"
        },
        "88DF3B36087267EB": {
            "name_en": "KOWLOON HOSPITAL",
            "lat": "22.321766",
            "long": "114.179182"
        },
        "8C44D48B9BAAB774": {
            "name_en": "YEE ON COURT",
            "lat": "22.320458",
            "long": "114.176111"
        },
        "300D1812E3A085C3": {
            "name_en": "PEACE AVENUE",
            "lat": "22.319953",
            "long": "114.173591"
        },
        "71429CEA8EA90958": {
            "name_en": "MONG KOK STATION",
            "lat": "22.319454",
            "long": "114.170828"
        },
        "325D8BC721F823F1": {
            "name_en": "TOMB PARK",
            "lat": "22.337790",
            "long": "114.160062"
        },
        "111216E506D8E575": {
            "name_en": "LAI YEUNG HOUSE, LEI CHENG UK ESTATE",
            "lat": "22.339749",
            "long": "114.159979"
        },
        "27809B866B307D24": {
            "name_en": "JOCKEY CLUB CLINIC CHEUNG SHA WAN",
            "lat": "22.340717",
            "long": "114.158592"
        },
        "FC29C8A636233BB4": {
            "name_en": "AZALEA HOUSE SO UK ESTATE",
            "lat": "22.339536",
            "long": "114.156628"
        },
        "D355B700FF30B3D7": {
            "name_en": "HING WAH STREET CHEUNG SHA WAN (X28)",
            "lat": "22.337744",
            "long": "114.152954"
        },
        "6762DEA1B89E6354": {
            "name_en": "CHEUNG LAI STREET CHEUNG SHA WAN (X45)",
            "lat": "22.336786",
            "long": "114.147023"
        },
        "3B68D3389F83FE39": {
            "name_en": "MEI FOO BUS TERMINUS (T2)",
            "lat": "22.337253",
            "long": "114.139988"
        },
        "ACA7282A66D0A29B": {
            "name_en": "TAI NAN WEST STREET",
            "lat": "22.336102",
            "long": "114.149431"
        },
        "0C44BAE327DB4A8A": {
            "name_en": "YU CHAU WEST STREET",
            "lat": "22.338965",
            "long": "114.149766"
        },
        "2B0183A25DA19AE3": {
            "name_en": "KWONG CHEUNG STREET",
            "lat": "22.339349",
            "long": "114.150865"
        },
        "70AED81BA5AE0B49": {
            "name_en": "CHEUNG WAH STREET",
            "lat": "22.339842",
            "long": "114.154686"
        },
        "8F5CC6D12F796BC0": {
            "name_en": "AZALEA HOUSE SO UK ESTATE",
            "lat": "22.339640",
            "long": "114.156695"
        },
        "310E4FE9B7419F88": {
            "name_en": "LEI CHENG UK SHOPPING CENTRE",
            "lat": "22.338358",
            "long": "114.158329"
        },
        "9364661BEAC5B8D0": {
            "name_en": "PEI HO STREET SHAM SHUI PO",
            "lat": "22.328543",
            "long": "114.160750"
        },
        "8D386F5D210C3439": {
            "name_en": "SHEK KIP MEI STREET",
            "lat": "22.327142",
            "long": "114.162550"
        },
        "BD06457129045F1D": {
            "name_en": "MONG KOK STATION",
            "lat": "22.319696",
            "long": "114.170788"
        },
        "A72D15160CC3AF31": {
            "name_en": "CLP POWER ARGYLE STREET",
            "lat": "22.320532",
            "long": "114.175816"
        },
        "8D5C58075D3C1003": {
            "name_en": "KOWLOON HOSPITAL",
            "lat": "22.322801",
            "long": "114.180560"
        },
        "B0DDF2CD704116C8": {
            "name_en": "HOSPITAL AUTHORITY BUILDING",
            "lat": "22.323790",
            "long": "114.182797"
        },
        "6C1DEF32B8CB92C4": {
            "name_en": "HONG KONG EYE HOSPITAL",
            "lat": "22.324908",
            "long": "114.184866"
        },
        "161B32AD4C6996AD": {
            "name_en": "EVANGEL HOSPITAL",
            "lat": "22.326104",
            "long": "114.187300"
        },
        "6965D1D655C2DD5F": {
            "name_en": "ARGYLE STREET PLAYGROUND",
            "lat": "22.327009",
            "long": "114.188955"
        },
        "E99D3F96A9F7B5EB": {
            "name_en": "KOWLOON CITY BBI - REGAL ORIENTAL HOTEL (A5)",
            "lat": "22.328723",
            "long": "114.192106"
        },
        "3D717F0365D5505B": {
            "name_en": "KING TAI STREET",
            "lat": "22.334279",
            "long": "114.199287"
        },
        "F60097D67F33DC0C": {
            "name_en": "KAI YIP ESTATE",
            "lat": "22.330767",
            "long": "114.210263"
        },
        "5B49CF04EAB59906": {
            "name_en": "AMOY GARDENS",
            "lat": "22.324215",
            "long": "114.215869"
        },
        "921C19F6147C74A6": {
            "name_en": "CHUN WAH COURT",
            "lat": "22.322426",
            "long": "114.218357"
        },
        "47C3597662B81B47": {
            "name_en": "LOK NGA COURT",
            "lat": "22.322730",
            "long": "114.220872"
        },
        "785985F99EE00AE4": {
            "name_en": "CHUK YUEN ESTATE BUS TERMINUS",
            "lat": "22.345524",
            "long": "114.192199"
        },
        "2C1366DA10099003": {
            "name_en": "RAINBOW PRIMARY SCHOOL",
            "lat": "22.345145",
            "long": "114.189677"
        },
        "74C71F2AE4947E5D": {
            "name_en": "WANG YIP HOUSE",
            "lat": "22.340529",
            "long": "114.188797"
        },
        "968575D69434DBB8": {
            "name_en": "WANG FU HOUSE",
            "lat": "22.340583",
            "long": "114.186556"
        },
        "210CF8389F782535": {
            "name_en": "H.K. BAPTIST UNIVERSITY",
            "lat": "22.339108",
            "long": "114.182487"
        },
        "6652A2FE695AD8C2": {
            "name_en": "KENT ROAD",
            "lat": "22.339922",
            "long": "114.176677"
        },
        "9B3566445BDAD548": {
            "name_en": "SHEK KIP MEI PARK",
            "lat": "22.339246",
            "long": "114.171103"
        },
        "A8E94E7F793372BD": {
            "name_en": "CHAK YAN CENTRE",
            "lat": "22.339781",
            "long": "114.167522"
        },
        "E275C17540BCEF37": {
            "name_en": "SHEK KIP MEI FIRE STATION",
            "lat": "22.338696",
            "long": "114.167401"
        },
        "6D1087ACF14C15A9": {
            "name_en": "SHUI TIN HOUSE PAK TIN ESTATE",
            "lat": "22.335930",
            "long": "114.169080"
        },
        "46ABE64DB9C82DDF": {
            "name_en": "WONG TAI SHAN MEMORIAL COLLEGE",
            "lat": "22.334730",
            "long": "114.168440"
        },
        "9F914539576C53A5": {
            "name_en": "SHEK KIP MEI SHOPPING CENTRE",
            "lat": "22.332023",
            "long": "114.166014"
        },
        "9215DDE04780BDC3": {
            "name_en": "SHAM SHUI PO POST OFFICE",
            "lat": "22.331958",
            "long": "114.163579"
        },
        "064E5D9FE6973F23": {
            "name_en": "CAMP STREET",
            "lat": "22.334154",
            "long": "114.160755"
        },
        "E766002A5624AFB6": {
            "name_en": "WING LUNG STREET",
            "lat": "22.336401",
            "long": "114.157818"
        },
        "7430D83B73E26B7C": {
            "name_en": "UN CHAU SHOPPING CENTRE",
            "lat": "22.337732",
            "long": "114.156102"
        },
        "0CE37125BC509E5D": {
            "name_en": "CHEUNG SHA WAN PATH (X31)",
            "lat": "22.338203",
            "long": "114.151281"
        },
        "B6ECF261EB79418C": {
            "name_en": "CHEUNG LAI STREET CHEUNG SHA WAN (X46)",
            "lat": "22.336684",
            "long": "114.146749"
        },
        "2C1F7467E446B212": {
            "name_en": "CHEUNG SHA WAN BUS TERMINUS",
            "lat": "22.337071",
            "long": "114.148586"
        },
        "80F5C6317F17C099": {
            "name_en": "KWONG CHEUNG STREET",
            "lat": "22.339322",
            "long": "114.150789"
        },
        "C9261749DE3F7FEF": {
            "name_en": "CHEUNG WAH STREET",
            "lat": "22.339902",
            "long": "114.154486"
        },
        "5B5ABCFBD1F60FEC": {
            "name_en": "WING LUNG STREET",
            "lat": "22.337757",
            "long": "114.157378"
        },
        "0FC0EE0AEA556A4C": {
            "name_en": "PRATAS STREET",
            "lat": "22.336247",
            "long": "114.159317"
        },
        "251112E838705DCD": {
            "name_en": "KIU KIANG STREET",
            "lat": "22.334718",
            "long": "114.161294"
        },
        "229C618DE131245A": {
            "name_en": "MEI SANG HOUSE SHEK KIP MEI ESTATE",
            "lat": "22.333562",
            "long": "114.165756"
        },
        "414700CC27B0F9DC": {
            "name_en": "MEI SHING HOUSE SHEK KIP MEI ESTATE",
            "lat": "22.333340",
            "long": "114.166865"
        },
        "43BFFB46B4D209FC": {
            "name_en": "SHUI TIN HOUSE PAK TIN ESTATE",
            "lat": "22.335588",
            "long": "114.168822"
        },
        "094457650286AA67": {
            "name_en": "SHEK KIP MEI FIRE STATION",
            "lat": "22.338766",
            "long": "114.166833"
        },
        "9E16397100F502B9": {
            "name_en": "CHAK YAN CENTRE",
            "lat": "22.339973",
            "long": "114.166933"
        },
        "121D3CCF6A82532F": {
            "name_en": "SHEK KIP MEI PARK",
            "lat": "22.339434",
            "long": "114.170165"
        },
        "90DC2AE9EBAF2658": {
            "name_en": "EDE ROAD",
            "lat": "22.340149",
            "long": "114.178327"
        },
        "4E037679702BBCBC": {
            "name_en": "KAM SHING ROAD",
            "lat": "22.339203",
            "long": "114.181225"
        },
        "AEBDE6434969EED9": {
            "name_en": "KA KEUNG COURT",
            "lat": "22.340844",
            "long": "114.184982"
        },
        "B1293E41AE9CB55F": {
            "name_en": "WANG CHIU HOUSE",
            "lat": "22.340757",
            "long": "114.187592"
        },
        "0095D35FB96EC6DF": {
            "name_en": "CHAK ON ESTATE BUS TERMINUS",
            "lat": "22.340478",
            "long": "114.164610"
        },
        "FDBA2A7F174E08F5": {
            "name_en": "PAK TIN (NORTH) BUS TERMINUS",
            "lat": "22.336429",
            "long": "114.168068"
        },
        "930E7A721D133F71": {
            "name_en": "BLOCK 9 PAK TIN ESTATE",
            "lat": "22.336923",
            "long": "114.165405"
        },
        "75832B86D4FA0C91": {
            "name_en": "Pak Tin Public Transport Interchange",
            "lat": "22.336188",
            "long": "114.165914"
        },
        "13757F4073A660F5": {
            "name_en": "MEI YICK HOUSE SHEK KIP MEI ESTATE",
            "lat": "22.334410",
            "long": "114.165061"
        },
        "598CB8743A812BCC": {
            "name_en": "SHEK KIP MEI SHOPPING CENTRE",
            "lat": "22.331741",
            "long": "114.166081"
        },
        "90C3A9DB72F244DE": {
            "name_en": "SHEK KIP MEI STATION",
            "lat": "22.331837",
            "long": "114.167987"
        },
        "81631C6B0F2D1843": {
            "name_en": "MAN LOK HOUSE",
            "lat": "22.331648",
            "long": "114.169578"
        },
        "7476BFC6F6B5D869": {
            "name_en": "CONCORDIA LUTHERAN SCHOOL",
            "lat": "22.330661",
            "long": "114.171935"
        },
        "F7FB52860229BBAB": {
            "name_en": "TAI HANG TUNG RECREATION GROUND",
            "lat": "22.328210",
            "long": "114.172215"
        },
        "E4B6BF6D835723A0": {
            "name_en": "EARL STREET",
            "lat": "22.326435",
            "long": "114.180472"
        },
        "7CC71E7933DD9625": {
            "name_en": "LA SALLE COLLEGE",
            "lat": "22.328512",
            "long": "114.181843"
        },
        "D34CCDD12A1BC57F": {
            "name_en": "LANCASHIRE ROAD",
            "lat": "22.329812",
            "long": "114.181880"
        },
        "EE3EA981F3D6485D": {
            "name_en": "COLLEGE ROAD",
            "lat": "22.329153",
            "long": "114.184761"
        },
        "F159C47896D53738": {
            "name_en": "LION ROCK ROAD",
            "lat": "22.329045",
            "long": "114.187875"
        },
        "0F38AE1F1CAFF245": {
            "name_en": "NAM KOK ROAD",
            "lat": "22.328990",
            "long": "114.189568"
        },
        "642A6178B23761B6": {
            "name_en": "TAK KU LING ROAD",
            "lat": "22.329861",
            "long": "114.191437"
        },
        "87D6AA0759B66B69": {
            "name_en": "TUNG TAU ESTATE",
            "lat": "22.333321",
            "long": "114.192796"
        },
        "A811A4AAF18AFAFF": {
            "name_en": "LUNG MOON HOUSE",
            "lat": "22.337746",
            "long": "114.192361"
        },
        "20915DF05723C615": {
            "name_en": "LUNG WAI HOUSE",
            "lat": "22.340024",
            "long": "114.194140"
        },
        "9FB606D162511C77": {
            "name_en": "WONG TAI SIN BUS TERMINUS",
            "lat": "22.340841",
            "long": "114.195295"
        },
        "168487E2C681CB0D": {
            "name_en": "LUNG WING HOUSE",
            "lat": "22.339271",
            "long": "114.193843"
        },
        "3942D55ED3DE84C9": {
            "name_en": "MORSE PARK NO. 2",
            "lat": "22.337576",
            "long": "114.192593"
        },
        "01ED81CCAEB03162": {
            "name_en": "TUNG TSING ROAD",
            "lat": "22.331596",
            "long": "114.192284"
        },
        "0BB21609A0E86B96": {
            "name_en": "REGAL ORIENTAL HOTEL",
            "lat": "22.329997",
            "long": "114.192799"
        },
        "2DF37AC3002CB750": {
            "name_en": "NAM KOK ROAD",
            "lat": "22.328812",
            "long": "114.189998"
        },
        "18CBF1D5C8C9C449": {
            "name_en": "FUK LO TSUN ROAD",
            "lat": "22.328897",
            "long": "114.187808"
        },
        "1CCCE3B2D9AB4D2A": {
            "name_en": "COLLEGE ROAD",
            "lat": "22.328972",
            "long": "114.184996"
        },
        "5C6ECA890BF03809": {
            "name_en": "OXFORD ROAD",
            "lat": "22.330165",
            "long": "114.181276"
        },
        "A926C2AC0071E407": {
            "name_en": "KOWLOON TONG CLUB",
            "lat": "22.329974",
            "long": "114.178761"
        },
        "AE88B3CCA11ACCDC": {
            "name_en": "EMBANKMENT ROAD",
            "lat": "22.325905",
            "long": "114.174204"
        },
        "8B2FD4BDD627C211": {
            "name_en": "TAI HANG TUNG RECREATION GROUND",
            "lat": "22.328198",
            "long": "114.171990"
        },
        "0EF525CD78152127": {
            "name_en": "CONCORDIA LUTHERAN SCHOOL",
            "lat": "22.330064",
            "long": "114.171923"
        },
        "2F8A93ADDCEF6856": {
            "name_en": "SHEK KIP MEI  STATION",
            "lat": "22.331455",
            "long": "114.169457"
        },
        "A86896A010757F50": {
            "name_en": "BLOCK 20 SHEK KIP MEI ESTATE",
            "lat": "22.332431",
            "long": "114.166897"
        },
        "E21DB57F640DB6A8": {
            "name_en": "BLOCK 23 SHEK KIP MEI ESTATE",
            "lat": "22.333633",
            "long": "114.165358"
        },
        "24F689B494BA3F6B": {
            "name_en": "ON TIN HOUSE PAK TIN ESTATE",
            "lat": "22.335810",
            "long": "114.165463"
        },
        "C7A337AC40E14E19": {
            "name_en": "BLOCK 9, PAK TIN ESTATE",
            "lat": "22.337012",
            "long": "114.165665"
        },
        "F8972DCAFDFD47A6": {
            "name_en": "CHAK TIN HOUSE",
            "lat": "22.336637",
            "long": "114.168054"
        },
        "36EE1028F547488D": {
            "name_en": "FU TIN HOUSE PAK TIN ESTATE",
            "lat": "22.336943",
            "long": "114.169137"
        },
        "C3427DE8E291FFA6": {
            "name_en": "KOWLOON CITY FERRY BUS TERMINUS",
            "lat": "22.318226",
            "long": "114.193132"
        },
        "F8D1049558163BE6": {
            "name_en": "KWEI CHOW STREET",
            "lat": "22.318125",
            "long": "114.191562"
        },
        "7703B0499F66B205": {
            "name_en": "LOK SHAN ROAD",
            "lat": "22.316802",
            "long": "114.190266"
        },
        "457C64EC8955C896": {
            "name_en": "HUNG FOOK STREET",
            "lat": "22.314364",
            "long": "114.187925"
        },
        "4A0370F0CA6A89B2": {
            "name_en": "HOK YUEN STREET HUNG HOM",
            "lat": "22.310192",
            "long": "114.187749"
        },
        "997CCAB996935BD7": {
            "name_en": "HUNG HOM MARKET",
            "lat": "22.307337",
            "long": "114.187135"
        },
        "6638A31332E98C83": {
            "name_en": "WALKER ROAD",
            "lat": "22.308069",
            "long": "114.184561"
        },
        "5CCBD9A6B58BF20D": {
            "name_en": "KOWLOON UNION CHURCH",
            "lat": "22.305649",
            "long": "114.172574"
        },
        "E049C81469E2B3C0": {
            "name_en": "PARKES STREET, TEMPLE STREET NIGHT MARKET",
            "lat": "22.305172",
            "long": "114.170361"
        },
        "076E1E9D5874C41D": {
            "name_en": "BATTERY STREET JORDAN",
            "lat": "22.305524",
            "long": "114.168430"
        },
        "F2BD88B8D506E78A": {
            "name_en": "FERRY STREET",
            "lat": "22.307181",
            "long": "114.167159"
        },
        "16F899DA5289900D": {
            "name_en": "YAN CHEUNG ROAD",
            "lat": "22.308881",
            "long": "114.166179"
        },
        "B96E368FC17CD0B0": {
            "name_en": "CHARMING GARDEN",
            "lat": "22.314039",
            "long": "114.164201"
        },
        "420E7970087AD769": {
            "name_en": "PARK AVENUE, OLYMPIAN CITY",
            "lat": "22.316414",
            "long": "114.163641"
        },
        "520C9836ACAECDF9": {
            "name_en": "FOO KWAI STREET",
            "lat": "22.318849",
            "long": "114.161872"
        },
        "22FE13158B36FE48": {
            "name_en": "COSMOPOLITAN ESTATE",
            "lat": "22.321795",
            "long": "114.161866"
        },
        "67064412B0E9D9A6": {
            "name_en": "FUK LEE STREET",
            "lat": "22.323434",
            "long": "114.161776"
        },
        "F646F96A5D18D121": {
            "name_en": "CHINESE PUBLIC DISPENSARY SHAM SHUI PO",
            "lat": "22.326978",
            "long": "114.161046"
        },
        "5B23A51CA34F4FAD": {
            "name_en": "YU CHAU STREET",
            "lat": "22.328681",
            "long": "114.162560"
        },
        "710390556FA80CAD": {
            "name_en": "FUK WA STREET",
            "lat": "22.330425",
            "long": "114.164174"
        },
        "AFE0100DABA53C21": {
            "name_en": "WOH CHAI STREET",
            "lat": "22.332483",
            "long": "114.166103"
        },
        "BBC5D60D2FB827D2": {
            "name_en": "WONG TAI SHAN MEMORIAL COLLEGE",
            "lat": "22.334875",
            "long": "114.168291"
        },
        "C47ACFA9541AB34F": {
            "name_en": "PAK TIN (NORTH) BUS TERMINUS",
            "lat": "22.336465",
            "long": "114.168290"
        },
        "708EB21B10D1588F": {
            "name_en": "Pak Tin Public Transport Interchange",
            "lat": "22.336250",
            "long": "114.165823"
        },
        "E3965CA6EFD60F36": {
            "name_en": "LAI TIN HOUSE, PAK TIN ESTATE",
            "lat": "22.334996",
            "long": "114.167310"
        },
        "259DBCF52320E083": {
            "name_en": "FUK WA STREET",
            "lat": "22.330266",
            "long": "114.164462"
        },
        "BDA357B832C55019": {
            "name_en": "KI LUNG STREET",
            "lat": "22.328428",
            "long": "114.162836"
        },
        "9A773DDB814933C1": {
            "name_en": "CHINESE PUBLIC DISPENSARY SHAM SHUI PO",
            "lat": "22.326728",
            "long": "114.161283"
        },
        "C163B1F33533C2A9": {
            "name_en": "LARCH STREET SITTING-OUT AREA",
            "lat": "22.323476",
            "long": "114.162038"
        },
        "6A225A9CB16BC4BB": {
            "name_en": "NEW KOWLOON PLAZA",
            "lat": "22.319785",
            "long": "114.162229"
        },
        "F5098BFD784B8FAB": {
            "name_en": "HOI FU COURT, PARK AVENUE",
            "lat": "22.316217",
            "long": "114.163941"
        },
        "1C7C526A52EF9171": {
            "name_en": "CHARMING GARDEN",
            "lat": "22.313988",
            "long": "114.164449"
        },
        "DED3339EB26494EA": {
            "name_en": "KANSU STREET",
            "lat": "22.308783",
            "long": "114.167883"
        },
        "577633405E7A3ACD": {
            "name_en": "FERRY STREET",
            "lat": "22.307260",
            "long": "114.167506"
        },
        "86E1C776C6D78DFC": {
            "name_en": "TEMPLE STREET JORDAN",
            "lat": "22.305384",
            "long": "114.169858"
        },
        "617893F4DBBEDE21": {
            "name_en": "CHI WO STREET JORDAN",
            "lat": "22.305858",
            "long": "114.172450"
        },
        "4CA486B230A34D3A": {
            "name_en": "WYLIE ROAD",
            "lat": "22.306743",
            "long": "114.176114"
        },
        "B0095CE9771BFC17": {
            "name_en": "MARSH STREET",
            "lat": "22.307305",
            "long": "114.186095"
        },
        "FEF7B371B95E5E13": {
            "name_en": "FAT KWONG STREET HUNG HOM",
            "lat": "22.309482",
            "long": "114.187523"
        },
        "9E655CE3250647EA": {
            "name_en": "SHEK TONG STREET",
            "lat": "22.313763",
            "long": "114.187490"
        },
        "2C7AEE8C6B2BC06A": {
            "name_en": "CHI KIANG STREET",
            "lat": "22.315758",
            "long": "114.189056"
        },
        "0B8D095A45B05587": {
            "name_en": "LOK SHAN ROAD",
            "lat": "22.317154",
            "long": "114.190345"
        },
        "1D0E096C4E9766C6": {
            "name_en": "KOWLOON CITY FERRY BUS TERMINUS",
            "lat": "22.318413",
            "long": "114.193434"
        },
        "76A2633F9A463E9C": {
            "name_en": "TSZ WAN SHAN (NORTH) BUS TERMINUS",
            "lat": "22.351029",
            "long": "114.198136"
        },
        "A9E1D35DB7FC7C7B": {
            "name_en": "OI FU HOUSE",
            "lat": "22.350837",
            "long": "114.199392"
        },
        "FDFC87BC94515900": {
            "name_en": "CHING HONG HOUSE",
            "lat": "22.348703",
            "long": "114.202724"
        },
        "E778E67CBC095B0C": {
            "name_en": "TAK OI SECONDARY SCHOOL",
            "lat": "22.348039",
            "long": "114.204250"
        },
        "29F7954D216356E1": {
            "name_en": "KOON WAH LANE",
            "lat": "22.347134",
            "long": "114.202250"
        },
        "2FBEE4E1965D7EF5": {
            "name_en": "LOK MOON HOUSE",
            "lat": "22.347212",
            "long": "114.200452"
        },
        "95067FE712E8ACEA": {
            "name_en": "SHUNG WAH STREET",
            "lat": "22.346357",
            "long": "114.198400"
        },
        "20709808D79F1BB9": {
            "name_en": "KAM FUNG STREET SITTING-OUT AREA",
            "lat": "22.344944",
            "long": "114.197735"
        },
        "E81E4649EB1D5B02": {
            "name_en": "MEI TAK HOUSE",
            "lat": "22.343510",
            "long": "114.197989"
        },
        "62A1C8EFAC876BDB": {
            "name_en": "WONG TAI SIN BBI - WONG TAI SIN TEMPLE (D2)",
            "lat": "22.341470",
            "long": "114.195370"
        },
        "93D9D88C2D990D67": {
            "name_en": "MORSE PARK SWIMMING POOL",
            "lat": "22.341570",
            "long": "114.191604"
        },
        "1CBA941164585ABC": {
            "name_en": "CHEUNG SHA WAN BUS TERMINUS",
            "lat": "22.337104",
            "long": "114.148698"
        },
        "43EE0C39CD39BA06": {
            "name_en": "PO LEUNG KUK NO.1 W. H. CHEUNG COLLEGE",
            "lat": "22.346282",
            "long": "114.205390"
        },
        "EF01999C9F909553": {
            "name_en": "DIAMOND HILL CREMATORIUM",
            "lat": "22.345108",
            "long": "114.206879"
        },
        "BF3D6019C5CA6D35": {
            "name_en": "FU SHAN ESTATE",
            "lat": "22.341903",
            "long": "114.208316"
        },
        "711A39D02DB2B4D8": {
            "name_en": "HAMMER HILL ROAD SPORTS GROUND",
            "lat": "22.339659",
            "long": "114.207353"
        },
        "52A8DA8958AFCCA6": {
            "name_en": "DIAMOND HILL STATION",
            "lat": "22.339246",
            "long": "114.202191"
        },
        "60A445D9ACD40C12": {
            "name_en": "WING KWONG COLLEGE",
            "lat": "22.342346",
            "long": "114.188401"
        },
        "EFED59E880B693F5": {
            "name_en": "TIN MA COURT",
            "lat": "22.342418",
            "long": "114.186220"
        },
        "29A62A8FE112766B": {
            "name_en": "PHOENIX HOUSE",
            "lat": "22.342585",
            "long": "114.172991"
        },
        "9751EE79B103C9B8": {
            "name_en": "BEACON HEIGHTS",
            "lat": "22.341649",
            "long": "114.166733"
        },
        "B123EFA9F9DDD6AB": {
            "name_en": "CHAK ON ESTATE",
            "lat": "22.340424",
            "long": "114.165276"
        },
        "16D37394ECACA7AD": {
            "name_en": "FUK WING STREET SHAM SHUI PO",
            "lat": "22.332816",
            "long": "114.162115"
        },
        "812E72C257C94B73": {
            "name_en": "PEI HO STREET SHAM SHUI PO (Y27)",
            "lat": "22.330678",
            "long": "114.162566"
        },
        "F893C6ABC2743F64": {
            "name_en": "LUNG CHEUNG GOVT. SEC. SCHOOL",
            "lat": "22.342344",
            "long": "114.189898"
        },
        "B27236FC63F891D9": {
            "name_en": "WONG TAI SIN BBI - WONG TAI SIN TEMPLE (B3)",
            "lat": "22.341855",
            "long": "114.192263"
        },
        "A15FFC3149FB92A0": {
            "name_en": "WONG TAI SIN BBI - SHATIN PASS ROAD (A2)",
            "lat": "22.341856",
            "long": "114.195204"
        },
        "88E23CD2F1AB7AF9": {
            "name_en": "FU YAU BUILDING",
            "lat": "22.344130",
            "long": "114.198779"
        },
        "0B160DE955F3AE10": {
            "name_en": "PO TSZ LANE",
            "lat": "22.345923",
            "long": "114.199854"
        },
        "830FACA208087E37": {
            "name_en": "PO HANG LANE",
            "lat": "22.346291",
            "long": "114.201905"
        },
        "E51BB6A7525BA679": {
            "name_en": "TSZ WAN SHAN (SOUTH) BUS TERMINUS",
            "lat": "22.346858",
            "long": "114.203314"
        },
        "76F0BFCC3D78F888": {
            "name_en": "TSZ MAN ESTATE",
            "lat": "22.348543",
            "long": "114.203268"
        },
        "BA55DB38DEF14AD4": {
            "name_en": "TSZ WAN SHAN ESTATE CENTRAL PLAYGROUND",
            "lat": "22.349523",
            "long": "114.201694"
        },
        "6B582CAEDE8FBDEF": {
            "name_en": "OI FU HOUSE",
            "lat": "22.350631",
            "long": "114.199302"
        },
        "4D0C5F20055CA652": {
            "name_en": "SHEUNG LI UK GARDEN",
            "lat": "22.335341",
            "long": "114.162341"
        },
        "99EF4CA10B3E1F17": {
            "name_en": "PHOENIX HOUSE",
            "lat": "22.343140",
            "long": "114.172841"
        },
        "326199D24220A42B": {
            "name_en": "TIN MA COURT",
            "lat": "22.342707",
            "long": "114.186638"
        },
        "D3425EC6D131021D": {
            "name_en": "PLAZA HOLLYWOOD",
            "lat": "22.339887",
            "long": "114.203086"
        },
        "951CE3B3EB98BA3A": {
            "name_en": "CHI LIN NUNNERY",
            "lat": "22.340105",
            "long": "114.204311"
        },
        "DB6981B82045B45C": {
            "name_en": "CHUN TOK SCHOOL",
            "lat": "22.339786",
            "long": "114.207218"
        },
        "ACE23D880D07ABB1": {
            "name_en": "GRAND VIEW GARDEN",
            "lat": "22.342399",
            "long": "114.207911"
        },
        "1DA57A1376E99AC6": {
            "name_en": "PO KONG VILLAGE ROAD SCHOOL VILLAGE",
            "lat": "22.345557",
            "long": "114.206232"
        },
        "964AA1DCAAD06512": {
            "name_en": "TAK OI SECONDARY SCHOOL",
            "lat": "22.347594",
            "long": "114.204096"
        },
        "534DB02642325617": {
            "name_en": "CHOI FOOK",
            "lat": "22.328659",
            "long": "114.217222"
        },
        "79E1F84E966F6113": {
            "name_en": "CHOI YIN HOUSE",
            "lat": "22.329755",
            "long": "114.216147"
        },
        "E905F8E518AE17B6": {
            "name_en": "YING ON HOUSE",
            "lat": "22.329075",
            "long": "114.214996"
        },
        "24AD2532770CF399": {
            "name_en": "YING SHUN HOUSE",
            "lat": "22.326815",
            "long": "114.215265"
        },
        "5564FED01546FF23": {
            "name_en": "CHEERFUL COURT",
            "lat": "22.325779",
            "long": "114.216743"
        },
        "55EE74AF2D1A7DAA": {
            "name_en": "DIOCESAN BOYS' SCHOOL",
            "lat": "22.324934",
            "long": "114.174398"
        },
        "DEB8D7D95E7D528A": {
            "name_en": "PLAYING FIELD ROAD",
            "lat": "22.324768",
            "long": "114.167479"
        },
        "4AF3A5BD16E5BA3F": {
            "name_en": "MAPLE STREET",
            "lat": "22.326719",
            "long": "114.165439"
        },
        "D3C41BB36EC805E0": {
            "name_en": "SHEK KIP MEI STREET REST GARDEN",
            "lat": "22.327994",
            "long": "114.163798"
        },
        "44C261864506654B": {
            "name_en": "KWEILIN STREET SHAM SHUI PO",
            "lat": "22.329851",
            "long": "114.161402"
        },
        "098AF67CBBB9FBA9": {
            "name_en": "YEE KOK COURT (X18)",
            "lat": "22.333466",
            "long": "114.158514"
        },
        "549013DC1C3A2A44": {
            "name_en": "LAI TSUI COURT",
            "lat": "22.333129",
            "long": "114.154948"
        },
        "59FF8DDFC4405C0D": {
            "name_en": "CHEERFUL COURT",
            "lat": "22.325659",
            "long": "114.216660"
        },
        "DE60928B8CFD9E7C": {
            "name_en": "YING ON HOUSE",
            "lat": "22.328294",
            "long": "114.215549"
        },
        "6557A31762F5311F": {
            "name_en": "CHOI TAK SHOPPING CENTRE",
            "lat": "22.329627",
            "long": "114.212538"
        },
        "90ED381AD3BAE4F9": {
            "name_en": "CHOI LEUNG HOUSE",
            "lat": "22.329787",
            "long": "114.215130"
        },
        "CA866CBB3EC92B9F": {
            "name_en": "TSZ WAN SHAN (CENTRAL) BUS TERMINUS",
            "lat": "22.348635",
            "long": "114.200408"
        },
        "31317843D8BA833F": {
            "name_en": "CHING FAI HOUSE",
            "lat": "22.350255",
            "long": "114.201077"
        },
        "B337148DB333E5C4": {
            "name_en": "FU SHAN ESTATE",
            "lat": "22.342384",
            "long": "114.208108"
        },
        "AFB03B10416E2199": {
            "name_en": "CHI LIN NUNNERY",
            "lat": "22.339894",
            "long": "114.204371"
        },
        "4B9D547F0F450784": {
            "name_en": "LUNG POON COURT",
            "lat": "22.342920",
            "long": "114.200382"
        },
        "23362ED34834C5F0": {
            "name_en": "WONG TAI SIN POLICE STATION",
            "lat": "22.338933",
            "long": "114.197161"
        },
        "38BDB19C8D7B8DF8": {
            "name_en": "CHOI HUNG ROAD PLAYGROUND",
            "lat": "22.337502",
            "long": "114.195595"
        },
        "319CA16456A9010D": {
            "name_en": "NING YUEN STREET, SAN PO KONG",
            "lat": "22.333911",
            "long": "114.195054"
        },
        "2A01E3163DF9A954": {
            "name_en": "KOWLOON CITY BBI - SUNG WONG TOI PARK (C1)",
            "lat": "22.326393",
            "long": "114.189921"
        },
        "F6E296480D3481A2": {
            "name_en": "SUNG WONG TOI ROAD",
            "lat": "22.323933",
            "long": "114.188588"
        },
        "25455FDE268CF605": {
            "name_en": "PAK TAI STREET",
            "lat": "22.323055",
            "long": "114.189914"
        },
        "C1AFF00AC64F457A": {
            "name_en": "THE HK SOCIETY FOR THE BLIND",
            "lat": "22.321487",
            "long": "114.193520"
        },
        "5396072459507B7F": {
            "name_en": "GRAND WATERFRONT",
            "lat": "22.319619",
            "long": "114.192985"
        },
        "C048D4CF6ED36C7A": {
            "name_en": "KWEI CHOW STREET",
            "lat": "22.318206",
            "long": "114.191623"
        },
        "68A8F08ABC5C90F0": {
            "name_en": "LOK SHAN ROAD",
            "lat": "22.316874",
            "long": "114.190332"
        },
        "AFEFDF25A955C72C": {
            "name_en": "HUNG FOOK STREET",
            "lat": "22.314625",
            "long": "114.188176"
        },
        "97B7EC0354E020B7": {
            "name_en": "BAILEY STREET HUNG HOM",
            "lat": "22.311523",
            "long": "114.187652"
        },
        "ED03E689B88CE0E8": {
            "name_en": "HOK YUEN STREET HUNG HOM",
            "lat": "22.309978",
            "long": "114.187750"
        },
        "3D47C2B2D3342C85": {
            "name_en": "BULKELEY STREET",
            "lat": "22.306788",
            "long": "114.185672"
        },
        "EB1702F877E4D077": {
            "name_en": "GILLIES AVENUE SOUTH",
            "lat": "22.306414",
            "long": "114.184083"
        },
        "C39037A588387F32": {
            "name_en": "HUNG HOM SOUTH ROAD",
            "lat": "22.305437",
            "long": "114.185238"
        },
        "95BC0F9FBDCCC62B": {
            "name_en": "HUNG HOM (HUNG LUEN ROAD), KERRY HOTEL",
            "lat": "22.301743",
            "long": "114.188848"
        },
        "EF5A5CD9C3A038C9": {
            "name_en": "HUNG HOM SOUTH ROAD",
            "lat": "22.305067",
            "long": "114.185185"
        },
        "AC48794DF1F3332C": {
            "name_en": "GILLIES AVENUE SOUTH",
            "lat": "22.307406",
            "long": "114.184489"
        },
        "DC74D0FA83E25E8D": {
            "name_en": "KA WAI CHUEN HUNG HOM",
            "lat": "22.307932",
            "long": "114.187326"
        },
        "BEB1BBD9E816FA59": {
            "name_en": "PAK KUNG STREET",
            "lat": "22.311515",
            "long": "114.187545"
        },
        "E80A3E968CCEEFF7": {
            "name_en": "SHEK TONG STREET",
            "lat": "22.313788",
            "long": "114.187494"
        },
        "4960882151DB05E0": {
            "name_en": "CHI KIANG STREET",
            "lat": "22.316089",
            "long": "114.189221"
        },
        "590E23621FD23B6C": {
            "name_en": "SHEUNG HEUNG ROAD",
            "lat": "22.317557",
            "long": "114.190641"
        },
        "F4B357B11344180D": {
            "name_en": "CHINA GAS COMPANY",
            "lat": "22.320656",
            "long": "114.192572"
        },
        "5C6534DD562AEF61": {
            "name_en": "JUBILANT PLACE",
            "lat": "22.322112",
            "long": "114.189244"
        },
        "B9BC3DE30A48F08B": {
            "name_en": "MA TAU KOK ROAD",
            "lat": "22.323651",
            "long": "114.188219"
        },
        "3FB80081AB2FF6FB": {
            "name_en": "ARGYLE STREET PLAYGROUND",
            "lat": "22.326257",
            "long": "114.189390"
        },
        "7F25B423230F5BEE": {
            "name_en": "KOWLOON CITY BBI - REGAL ORIENTAL HOTEL (A2)",
            "lat": "22.328940",
            "long": "114.192314"
        },
        "CFCA63CAF4C25D2B": {
            "name_en": "NG WAH CATHOLIC SECONDARY SCHOOL",
            "lat": "22.333001",
            "long": "114.195586"
        },
        "D446D1EA79502BF2": {
            "name_en": "TAI TUNG HOUSE",
            "lat": "22.336357",
            "long": "114.194529"
        },
        "DE9BE04046C197C4": {
            "name_en": "WONG TAI SIN POLICE STATION",
            "lat": "22.339206",
            "long": "114.197196"
        },
        "A0FDF34B2D278750": {
            "name_en": "FUNG TAK SHOPPING CENTRE",
            "lat": "22.343311",
            "long": "114.199551"
        },
        "D237B30F94B6065D": {
            "name_en": "TSZ MAN ESTATE",
            "lat": "22.348542",
            "long": "114.202610"
        },
        "7D025E77F4B35266": {
            "name_en": "TSZ ON COURT",
            "lat": "22.348661",
            "long": "114.201216"
        },
        "EE3B5ABCB87027E7": {
            "name_en": "CHING FAI HOUSE",
            "lat": "22.350378",
            "long": "114.200715"
        },
        "FD18FAF570857B51": {
            "name_en": "TSZ WAN SHAN (NORTH) BUS TERMINUS",
            "lat": "22.350933",
            "long": "114.198195"
        },
        "7E177E3E89B58BFE": {
            "name_en": "TSZ WAN SHAN (CENTRAL) BUS TERMINUS",
            "lat": "22.348573",
            "long": "114.200390"
        },
        "D4E2DC0F24A22589": {
            "name_en": "PO KONG VILLAGE ROAD PARK",
            "lat": "22.346298",
            "long": "114.202562"
        },
        "0D39977C225DD2D5": {
            "name_en": "CHU FUNG HOUSE",
            "lat": "22.345991",
            "long": "114.200993"
        },
        "AC30AF0DFC95D507": {
            "name_en": "FUNG CHUEN COURT",
            "lat": "22.344259",
            "long": "114.199055"
        },
        "2431FF3100478DEE": {
            "name_en": "JUNCTION ROAD KOWLOON TONG",
            "lat": "22.337823",
            "long": "114.179256"
        },
        "ED6FCB0422D541F5": {
            "name_en": "KOWLOON TONG STATION",
            "lat": "22.335662",
            "long": "114.179091"
        },
        "850F72123F644500": {
            "name_en": "LA VILLA",
            "lat": "22.331444",
            "long": "114.178818"
        },
        "7A1C43F91CF8A6FC": {
            "name_en": "KOWLOON TONG CLUB",
            "lat": "22.329348",
            "long": "114.178743"
        },
        "6F5585807DB07812": {
            "name_en": "PRINCE EDWARD STATION",
            "lat": "22.324122",
            "long": "114.169733"
        },
        "68D0BC0C7164F763": {
            "name_en": "MONG KOK STATION (S12), ARGYLE CENTRE",
            "lat": "22.319868",
            "long": "114.169295"
        },
        "7BE18698D0E8FDCE": {
            "name_en": "SOY STREET MONG KOK (S22)",
            "lat": "22.316021",
            "long": "114.170116"
        },
        "8748720365CEA134": {
            "name_en": "PITT STREET YAU MA TEI (S29)",
            "lat": "22.313461",
            "long": "114.170674"
        },
        "25B94D808EC232D8": {
            "name_en": "GASCOIGNE ROAD (S38)",
            "lat": "22.308921",
            "long": "114.171408"
        },
        "D06E5A5B162EF1BA": {
            "name_en": "WUI CHEUNG ROAD, AUSTIN STATION",
            "lat": "22.304716",
            "long": "114.167704"
        },
        "577490AF159C4088": {
            "name_en": "CHINA HONG KONG CITY B/T",
            "lat": "22.300231",
            "long": "114.167829"
        },
        "450A96AF1DA8E41C": {
            "name_en": "AUSTIN STATION",
            "lat": "22.303707",
            "long": "114.167718"
        },
        "C91C122CFC3FF66B": {
            "name_en": "BATTERY STREET JORDAN",
            "lat": "22.305803",
            "long": "114.168193"
        },
        "0E9F8B5A3734D9CE": {
            "name_en": "NING PO STREET YAU MA TEI (N27)",
            "lat": "22.306759",
            "long": "114.171390"
        },
        "FABC0445FC1C04D7": {
            "name_en": "KOWLOON CENTRAL POST OFFICE (N32)",
            "lat": "22.308978",
            "long": "114.171179"
        },
        "3A43E432D0588F79": {
            "name_en": "PITT STREET YAU MA TEI (N47)",
            "lat": "22.313744",
            "long": "114.170364"
        },
        "E6124D0EDF568E1E": {
            "name_en": "NELSON STREET MONG KOK (N64)",
            "lat": "22.318459",
            "long": "114.169426"
        },
        "701AC3250BF77D0E": {
            "name_en": "MONG KOK STATION",
            "lat": "22.319675",
            "long": "114.170644"
        },
        "48AA5A2907C1833D": {
            "name_en": "CLP POWER ARGYLE STREET",
            "lat": "22.320703",
            "long": "114.176086"
        },
        "89A4D25AC31A8388": {
            "name_en": "ST. GEORGE APARTMENTS",
            "lat": "22.323436",
            "long": "114.178015"
        },
        "6465986EF7824816": {
            "name_en": "KOWLOON TONG CLUB",
            "lat": "22.329236",
            "long": "114.178469"
        },
        "F21DC659FA565E2F": {
            "name_en": "CHRISTIAN CENTRAL CHURCH",
            "lat": "22.332024",
            "long": "114.178692"
        },
        "48E5A1EED91712EE": {
            "name_en": "KOWLOON TONG STATION",
            "lat": "22.336254",
            "long": "114.178788"
        },
        "56BC96AC3FFF0223": {
            "name_en": "TSZ WAN SHAN (CENTRAL) BUS TERMINUS",
            "lat": "22.348490",
            "long": "114.200358"
        },
        "119ADA59BD2708D2": {
            "name_en": "CHING FAI HOUSE",
            "lat": "22.350314",
            "long": "114.200922"
        },
        "C185612B431B197A": {
            "name_en": "CHING HONG HOUSE",
            "lat": "22.348672",
            "long": "114.202907"
        },
        "A4C9136D18013389": {
            "name_en": "TAK OI SECONDARY SCHOOL",
            "lat": "22.347293",
            "long": "114.204339"
        },
        "EDDE9311F49AC296": {
            "name_en": "CHOI HUNG BBI - PIK HOI HOUSE (M4)",
            "lat": "22.335791",
            "long": "114.204745"
        },
        "6216EE509BD55B09": {
            "name_en": "LOWER NGAU TAU KOK ESTATE",
            "lat": "22.321766",
            "long": "114.214645"
        },
        "F59AE1D39E8B2E29": {
            "name_en": "KWUN TONG BBI - MILLENNIUM CITY (U3)",
            "lat": "22.314216",
            "long": "114.221905"
        },
        "8B8DDE8FC3A125B8": {
            "name_en": "KWUN TONG (YUE MAN SQUARE) BUS TERMINUS",
            "lat": "22.314833",
            "long": "114.224871"
        },
        "839276ED5C3F4F4C": {
            "name_en": "TSZ WAN SHAN (SOUTH) BUS TERMINUS",
            "lat": "22.346872",
            "long": "114.203202"
        },
        "38F4F6A39C28DEB5": {
            "name_en": "KWUN TONG (YUE MAN SQUARE) BUS TERMINUS",
            "lat": "22.314833",
            "long": "114.224871"
        },
        "8BAB6AA783EE0508": {
            "name_en": "KWUN TONG BBI - MILLENNIUM CITY (B4)",
            "lat": "22.314051",
            "long": "114.221502"
        },
        "CC811B604DD883AE": {
            "name_en": "TELFORD GARDENS",
            "lat": "22.322088",
            "long": "114.214272"
        },
        "5E1B227D9FAC4267": {
            "name_en": "KOWLOON BAY STATION",
            "lat": "22.324947",
            "long": "114.214015"
        },
        "DB42B6238F75CF3C": {
            "name_en": "KAI TAI COURT",
            "lat": "22.328672",
            "long": "114.211978"
        },
        "917DF4AF0ED7B258": {
            "name_en": "NGAU CHI WAN BBI - TAN FUNG HOUSE (J2)",
            "lat": "22.335294",
            "long": "114.207582"
        },
        "7FB952821E3FCAD2": {
            "name_en": "CHOI HUNG BBI - CHOI HUNG BUS TERMINUS (N6)",
            "lat": "22.335721",
            "long": "114.204285"
        },
        "94780B40412261CE": {
            "name_en": "TSZ WAN SHAN (NORTH) BUS TERMINUS",
            "lat": "22.351133",
            "long": "114.198268"
        },
        "63E6DD5119A301AD": {
            "name_en": "PO LEUNG KUK NO.1 W. H. CHEUNG COLLEGE",
            "lat": "22.346370",
            "long": "114.205219"
        },
        "CF89BD775D2ABDC9": {
            "name_en": "FU SHAN ESTATE",
            "lat": "22.341572",
            "long": "114.208418"
        },
        "64CE8117895E8FAD": {
            "name_en": "NGAU CHI WAN BBI-NGAU CHI WAN VILLAGE (G2)",
            "lat": "22.336431",
            "long": "114.207548"
        },
        "5CD4C77378D3A4AE": {
            "name_en": "NGAU CHI WAN BBI - NGAU CHI WAN MARKET (F2)",
            "lat": "22.334351",
            "long": "114.209490"
        },
        "942E95B4336BDFA7": {
            "name_en": "PAK HUNG HOUSE",
            "lat": "22.332599",
            "long": "114.215269"
        },
        "33BA3785390F1457": {
            "name_en": "KOON YAT HOUSE",
            "lat": "22.333521",
            "long": "114.216390"
        },
        "6D1FFB57C26F1108": {
            "name_en": "CHOI WAN BUS TERMINUS",
            "lat": "22.333413",
            "long": "114.214870"
        },
        "93E0033436973DA7": {
            "name_en": "NGAU CHI WAN BBI - CHOI HUNG STATION (K3)",
            "lat": "22.334161",
            "long": "114.210132"
        },
        "A8054881B534B00A": {
            "name_en": "PO KONG VILLAGE ROAD SCHOOL VILLAGE",
            "lat": "22.345888",
            "long": "114.205889"
        },
        "046E0C931956561B": {
            "name_en": "DIAMOND HILL STATION (LUNG POON STREET)",
            "lat": "22.341459",
            "long": "114.201054"
        },
        "0E418F17EB45AC02": {
            "name_en": "FU SHAN ESTATE BUS TERMINUS",
            "lat": "22.343649",
            "long": "114.207982"
        },
        "17EB4B9A9DE2FAF6": {
            "name_en": "WONG TAI SIN POLICE STATION",
            "lat": "22.338896",
            "long": "114.197075"
        },
        "BAA5C48341F400C8": {
            "name_en": "YIN HING STREET, SAN PO KONG",
            "lat": "22.335956",
            "long": "114.194555"
        },
        "401EAF24B736C5B6": {
            "name_en": "NING YUEN STREET, SAN PO KONG",
            "lat": "22.333999",
            "long": "114.194959"
        },
        "9DDE74BD2D803D9C": {
            "name_en": "GASCOIGNE ROAD (S39)",
            "lat": "22.308880",
            "long": "114.171410"
        },
        "E10A0960D4E103B1": {
            "name_en": "TAK SHING STREET TSIM SHA TSUI (S45)",
            "lat": "22.304279",
            "long": "114.171799"
        },
        "D6E03ECA84C07932": {
            "name_en": "KIMBERLEY ROAD (S49), MIRA PLACE",
            "lat": "22.300942",
            "long": "114.172087"
        },
        "45F2E2A508556D6E": {
            "name_en": "TSIM SHA TSUI BBI - MIDDLE ROAD (S55)",
            "lat": "22.295211",
            "long": "114.172484"
        },
        "E3A083E4F64D93CD": {
            "name_en": "KOWLOON PARK DRIVE",
            "lat": "22.295997",
            "long": "114.170136"
        },
        "40D067F126426DC6": {
            "name_en": "JORDAN (WEST KOWLOON STATION) BUS TERMINUS",
            "lat": "22.307550",
            "long": "114.164551"
        },
        "F6EE4DC41A299593": {
            "name_en": "WUI CHEUNG ROAD, AUSTIN STATION",
            "lat": "22.304334",
            "long": "114.167837"
        },
        "83EB94899B6BBB4B": {
            "name_en": "AUSTIN ROAD, XIQU CENTRE",
            "lat": "22.302051",
            "long": "114.168121"
        },
        "5F60283656DF3016": {
            "name_en": "SILVERCORD",
            "lat": "22.297488",
            "long": "114.168979"
        },
        "149838B41A465D6E": {
            "name_en": "FU SHAN ESTATE BUS TERMINUS",
            "lat": "22.344040",
            "long": "114.207731"
        },
        "49EF17D5925C652A": {
            "name_en": "CHOI HUNG BBI - CHOI HUNG BUS TERMINUS (N2)",
            "lat": "22.336083",
            "long": "114.204152"
        },
        "E41318CD5899D680": {
            "name_en": "SZE MEI STREET, SAN PO KONG",
            "lat": "22.337821",
            "long": "114.201827"
        },
        "87154BA98253B43D": {
            "name_en": "YIN HING STREET, SAN PO KONG",
            "lat": "22.335909",
            "long": "114.194526"
        },
        "7F445DD11BE9B105": {
            "name_en": "KOWLOON CITY BBI - SUNG WONG TOI PARK (C3)",
            "lat": "22.326219",
            "long": "114.189840"
        },
        "CD1DFFC7411A44B9": {
            "name_en": "MOK CHEONG STREET",
            "lat": "22.323346",
            "long": "114.188307"
        },
        "3331EE733A2A3EBB": {
            "name_en": "MA HANG CHUNG ROAD",
            "lat": "22.319598",
            "long": "114.187736"
        },
        "7F864B82461F638D": {
            "name_en": "TO KWA WAN MARKET",
            "lat": "22.317547",
            "long": "114.187665"
        },
        "57DFE7792042405B": {
            "name_en": "CHI KIANG STREET PLAYGROUND",
            "lat": "22.314562",
            "long": "114.187656"
        },
        "7CC8FC8889FF1596": {
            "name_en": "SAN LAU STREET",
            "lat": "22.312282",
            "long": "114.186412"
        },
        "DF4F6B54816F5172": {
            "name_en": "PING CHI STREET HUNG HOM",
            "lat": "22.309524",
            "long": "114.184594"
        },
        "558599642E78BB9B": {
            "name_en": "H.K. POLYTECHNIC UNIVERSITY",
            "lat": "22.303475",
            "long": "114.177976"
        },
        "BEEBDDB542A7E709": {
            "name_en": "HONG KONG SCIENCE MUSEUM",
            "lat": "22.301475",
            "long": "114.176613"
        },
        "48184733EFE9D3E3": {
            "name_en": "MODY ROAD TSIM SHA TSUI",
            "lat": "22.298487",
            "long": "114.175834"
        },
        "8E8DB91C885F1230": {
            "name_en": "EAST TSIM SHA TSUI STATION, K11  MUSEA",
            "lat": "22.294724",
            "long": "114.174189"
        },
        "96363F113F394E8A": {
            "name_en": "STAR FERRY, HARBOUR CITY",
            "lat": "22.294304",
            "long": "114.169112"
        },
        "576538E1395C8508": {
            "name_en": "East Tsim Sha Tsui Station, K11  MUSEA",
            "lat": "22.295226",
            "long": "114.174647"
        },
        "FE4E099AEA040C89": {
            "name_en": "MODY ROAD TSIM SHA TSUI",
            "lat": "22.297728",
            "long": "114.175406"
        },
        "A57516D1C7B8B052": {
            "name_en": "GRANVILLE ROAD",
            "lat": "22.300000",
            "long": "114.175891"
        },
        "BB073EF1DACCA6E4": {
            "name_en": "HONG KONG SCIENCE MUSEUM",
            "lat": "22.301411",
            "long": "114.176325"
        },
        "E45CFAB2E6E4C8FE": {
            "name_en": "H.K. POLYTECHNIC UNIVERSITY",
            "lat": "22.302916",
            "long": "114.177719"
        },
        "33033960343A57A8": {
            "name_en": "VALLEY ROAD HUNG HOM",
            "lat": "22.309321",
            "long": "114.183816"
        },
        "E37FF663075361FE": {
            "name_en": "PAK KUNG STREET HUNG HOM",
            "lat": "22.312219",
            "long": "114.186087"
        },
        "4850531F57582BD9": {
            "name_en": "LOK SHAN ROAD TO KWA WAN",
            "lat": "22.317025",
            "long": "114.187465"
        },
        "1C02C4A92902FE95": {
            "name_en": "SHEUNG HEUNG ROAD",
            "lat": "22.319280",
            "long": "114.187420"
        },
        "9C1D2401E1E06544": {
            "name_en": "SAN SHAN ROAD",
            "lat": "22.321714",
            "long": "114.187444"
        },
        "0543B8455A70833F": {
            "name_en": "NG WAH CATHOLIC SECONDARY SCHOOL",
            "lat": "22.333087",
            "long": "114.195516"
        },
        "51831905D7BC1802": {
            "name_en": "KAI TAK GARDEN",
            "lat": "22.337218",
            "long": "114.195091"
        },
        "FE3B13A457EEA70C": {
            "name_en": "WONG TAI SIN POLICE STATION",
            "lat": "22.338987",
            "long": "114.196765"
        },
        "F203BEDE3E90A5BA": {
            "name_en": "SZE MEI STREET, SAN PO KONG",
            "lat": "22.338209",
            "long": "114.201716"
        },
        "87825C8E4FE99CD8": {
            "name_en": "CHOI HUNG BBI - PIK HOI HOUSE (M2)",
            "lat": "22.335857",
            "long": "114.204713"
        },
        "90901971846A40E7": {
            "name_en": "CHOI HUNG BBI - CHOI HUNG BUS TERMINUS (N5)",
            "lat": "22.335845",
            "long": "114.204267"
        },
        "D7D5103D53D4ED90": {
            "name_en": "KAI TAK (KAI CHING ESTATE)",
            "lat": "22.332142",
            "long": "114.203904"
        },
        "E207DBF95EA7DE26": {
            "name_en": "MUK HUNG STREET",
            "lat": "22.332082",
            "long": "114.204744"
        },
        "C71093B5185DF735": {
            "name_en": "KOWLOON EAST REGIONAL POLICE HEADQUARTERS",
            "lat": "22.334237",
            "long": "114.201936"
        },
        "C80FB453C9F53569": {
            "name_en": "THE LATITUDE",
            "lat": "22.332000",
            "long": "114.196917"
        },
        "C160C8F46BBBEF99": {
            "name_en": "CROSS HARBOUR TUNNEL BBI - HUNG HOM STATION (D1)",
            "lat": "22.302735",
            "long": "114.180961"
        },
        "C650BECDAF9D9EB0": {
            "name_en": "WING ON PLAZA, AVENUE OF STARS",
            "lat": "22.296416",
            "long": "114.177000"
        },
        "D7E4D53EF0B874EB": {
            "name_en": "STAR FERRY, HARBOUR CITY",
            "lat": "22.293816",
            "long": "114.168797"
        },
        "1864222D8939BD69": {
            "name_en": "WING ON PLAZA, AVENUE OF STARS",
            "lat": "22.296522",
            "long": "114.176660"
        },
        "4C52780594F2D674": {
            "name_en": "TIN KWONG ROAD TO KWA WAN",
            "lat": "22.319632",
            "long": "114.187459"
        },
        "AA62C03711F778F2": {
            "name_en": "GERANIUM HOUSE",
            "lat": "22.322517",
            "long": "114.187516"
        },
        "6D6EE27729F3C486": {
            "name_en": "THE FAMILY PLANNING ASSOCIATION OF HK",
            "lat": "22.323904",
            "long": "114.188214"
        },
        "BB172B3A5DAC85A4": {
            "name_en": "KOWLOON CITY BBI - REGAL ORIENTAL HOTEL (A3)",
            "lat": "22.328624",
            "long": "114.191977"
        },
        "D7A05B5BAF07A89B": {
            "name_en": "THE LATITUDE",
            "lat": "22.332960",
            "long": "114.196532"
        },
        "29759ECB92E1A91B": {
            "name_en": "TRADE AND INDUSTRY TOWER",
            "lat": "22.332189",
            "long": "114.197970"
        },
        "C44684E01A99DE4F": {
            "name_en": "KOWLOON EAST REGIONAL POLICE HEADQUARTERS",
            "lat": "22.334507",
            "long": "114.201857"
        },
        "688797454F595B1F": {
            "name_en": "TSZ WAN SHAN (CENTRAL) BUS TERMINUS",
            "lat": "22.348375",
            "long": "114.200471"
        },
        "1FEA0FF1E4CB57E8": {
            "name_en": "LOK MOON HOUSE",
            "lat": "22.347198",
            "long": "114.200596"
        },
        "D46ED62A04D37ECE": {
            "name_en": "KWEI CHOW STREET",
            "lat": "22.318125",
            "long": "114.191562"
        },
        "91929D42214F3D7F": {
            "name_en": "HUNG FOOK STREET",
            "lat": "22.314563",
            "long": "114.188116"
        },
        "906508C26C6B89EC": {
            "name_en": "BAILEY STREET HUNG HOM",
            "lat": "22.311425",
            "long": "114.187735"
        },
        "8D5FB973BE9429B4": {
            "name_en": "MAN YUE STREET HUNG HOM",
            "lat": "22.308415",
            "long": "114.187741"
        },
        "AD803E8A0ED6C3B9": {
            "name_en": "BULKELEY STREET",
            "lat": "22.307149",
            "long": "114.185112"
        },
        "98F5ACF0CF540E7C": {
            "name_en": "GILLIES AVENUE SOUTH",
            "lat": "22.306475",
            "long": "114.184129"
        },
        "505D36136FD57784": {
            "name_en": "HUNG HOM STATION",
            "lat": "22.302083",
            "long": "114.182547"
        },
        "FE2815CBCD21C57C": {
            "name_en": "HK MUSEUM OF HISTORY",
            "lat": "22.302694",
            "long": "114.177430"
        },
        "4D5FBE4639E869E3": {
            "name_en": "STAR FERRY, HARBOUR CITY",
            "lat": "22.294478",
            "long": "114.169249"
        },
        "5D75A800F823B45D": {
            "name_en": "East Tsim Sha Tsui Station, K11  MUSEA",
            "lat": "22.295152",
            "long": "114.174392"
        },
        "C175ACB534E8C15C": {
            "name_en": "MODY ROAD TSIM SHA TSUI",
            "lat": "22.297822",
            "long": "114.175434"
        },
        "4139F73177AF267D": {
            "name_en": "GRANVILLE ROAD",
            "lat": "22.299774",
            "long": "114.175855"
        },
        "3D040EE809057C6E": {
            "name_en": "H.K. POLYTECHNIC UNIVERSITY",
            "lat": "22.302827",
            "long": "114.177953"
        },
        "AE264B401D72411A": {
            "name_en": "HUNG HOM STATION",
            "lat": "22.303915",
            "long": "114.182810"
        },
        "EE5D9C9A5622C786": {
            "name_en": "HUNG LAI ROAD",
            "lat": "22.304488",
            "long": "114.185321"
        },
        "E0606D6156DB9960": {
            "name_en": "TELFORD GARDENS BUS TERMINUS",
            "lat": "22.322428",
            "long": "114.213151"
        },
        "3F4B54625D1F9E48": {
            "name_en": "KOWLOON BAY SPORTS GROUND",
            "lat": "22.326543",
            "long": "114.208393"
        },
        "F663E12DC37F3C5A": {
            "name_en": "BLOCK 18 RICHLAND GARDENS",
            "lat": "22.329538",
            "long": "114.208095"
        },
        "AC4EEE801BB9133C": {
            "name_en": "BLOCK 13 RICHLAND GARDENS",
            "lat": "22.330688",
            "long": "114.206918"
        },
        "B48B8F12CD929F0F": {
            "name_en": "KAI TAK (KAI CHING ESTATE)",
            "lat": "22.332416",
            "long": "114.203904"
        },
        "42ED08E8B1829CED": {
            "name_en": "KAI TAK (TAK LONG ESTATE)",
            "lat": "22.329467",
            "long": "114.204859"
        },
        "0A4AB87891ABB16A": {
            "name_en": "TAK LONG ESTATE CARPARK",
            "lat": "22.327790",
            "long": "114.204400"
        },
        "6730CB42E8AA1302": {
            "name_en": "EMSD HEADQUARTERS",
            "lat": "22.326226",
            "long": "114.202815"
        },
        "438AFA4E9E76C953": {
            "name_en": "TAK MAN STREET",
            "lat": "22.305880",
            "long": "114.188304"
        },
        "32A26FEADDED5A62": {
            "name_en": "WHAMPOA GARDEN BUS TERMINUS",
            "lat": "22.304830",
            "long": "114.190277"
        },
        "D3139CF35C894BC8": {
            "name_en": "HUNG HOM ESTATE",
            "lat": "22.307503",
            "long": "114.189987"
        },
        "C5888ACE3DDA6B30": {
            "name_en": "HOK YUEN STREET EAST",
            "lat": "22.311667",
            "long": "114.190298"
        },
        "38C2E40346BA619E": {
            "name_en": "SUNG KIT STREET",
            "lat": "22.312166",
            "long": "114.188940"
        },
        "411A32C9BBF53857": {
            "name_en": "SHEUNG HEUNG ROAD",
            "lat": "22.317597",
            "long": "114.190666"
        },
        "8372F8B80204FC1F": {
            "name_en": "MERIT INDUSTRIAL CENTRE",
            "lat": "22.319006",
            "long": "114.192016"
        },
        "658AD32D477D3CAB": {
            "name_en": "MUK TAI STREET",
            "lat": "22.325289",
            "long": "114.200529"
        },
        "95FD06A3ADC9CB13": {
            "name_en": "EMSD HEADQUARTERS",
            "lat": "22.326408",
            "long": "114.202507"
        },
        "C1C31D615DAA97F4": {
            "name_en": "TAK LONG ESTATE CARPARK",
            "lat": "22.327940",
            "long": "114.204303"
        },
        "BC932662BA367CD0": {
            "name_en": "KAI TAK (TAK LONG ESTATE)",
            "lat": "22.330099",
            "long": "114.204609"
        },
        "72999453ECAC4693": {
            "name_en": "BLOCK 8 RICHLAND GARDENS",
            "lat": "22.331389",
            "long": "114.205832"
        },
        "AA26D9F25826AA4A": {
            "name_en": "KAI YIP ESTATE",
            "lat": "22.328645",
            "long": "114.208437"
        },
        "FBE38593BDEB0802": {
            "name_en": "KOWLOON BAY SPORTS GROUND",
            "lat": "22.326515",
            "long": "114.208649"
        },
        "DB3C6CA4725A7436": {
            "name_en": "KAI TAK (TAK LONG ESTATE)",
            "lat": "22.330541",
            "long": "114.204626"
        },
        "811D4A91C1134CEA": {
            "name_en": "CHOI HUNG ESTATE",
            "lat": "22.335336",
            "long": "114.204301"
        },
        "75957EA713E84A37": {
            "name_en": "PING SHEK ESTATE",
            "lat": "22.333234",
            "long": "114.207131"
        },
        "BC7C325EE59235E4": {
            "name_en": "KOWLOON BAY STATION (EKCC)",
            "lat": "22.324048",
            "long": "114.214410"
        },
        "426029D3D8AE6E40": {
            "name_en": "AMOY GARDENS",
            "lat": "22.324412",
            "long": "114.215439"
        },
        "32A2D05A195364DC": {
            "name_en": "SKYLINE TOWER",
            "lat": "22.326567",
            "long": "114.205250"
        },
        "CF2071A75162D381": {
            "name_en": "TSZ WAN SHAN (CENTRAL) BUS TERMINUS",
            "lat": "22.348599",
            "long": "114.200399"
        },
        "35CD2E3911AEA038": {
            "name_en": "LOK SHAN ROAD TO KWA WAN",
            "lat": "22.316808",
            "long": "114.187508"
        },
        "661FEE32A0D73EB0": {
            "name_en": "WONG CHUNG MING SECONDARY SCHOOL",
            "lat": "22.333958",
            "long": "114.194661"
        },
        "5F1C669F444A0556": {
            "name_en": "KAI TAK CRUISE TERMINAL",
            "lat": "22.306905",
            "long": "114.212323"
        },
        "AA28557D2EE2F8D0": {
            "name_en": "SHING KING STREET",
            "lat": "22.309713",
            "long": "114.209991"
        },
        "F573BDBB62023031": {
            "name_en": "SHING FUNG ROAD",
            "lat": "22.312022",
            "long": "114.207504"
        },
        "600158E293C9354E": {
            "name_en": "HONG KONG CHILDREN'S HOSPITAL",
            "lat": "22.315729",
            "long": "114.209763"
        },
        "BA0B05CA62C32007": {
            "name_en": "HOI BUN ROAD PARK",
            "lat": "22.314806",
            "long": "114.215111"
        },
        "C057639478BE0168": {
            "name_en": "NGAU TAU KOK STATION (V4)",
            "lat": "22.315254",
            "long": "114.219427"
        },
        "1E3A342DF7D5B8B5": {
            "name_en": "apm MILLENNIUM CITY 5 (D1)",
            "lat": "22.312587",
            "long": "114.225296"
        },
        "83BB162ED5F1355F": {
            "name_en": "KWUN TONG BBI - NGAU TAU KOK STATION (A1)",
            "lat": "22.314726",
            "long": "114.219673"
        },
        "D39533060940818A": {
            "name_en": "LAI YIP STREET, KWUN TONG",
            "lat": "22.313800",
            "long": "114.215990"
        },
        "14894C859FDFE8C3": {
            "name_en": "KWUN TONG PROMENADE",
            "lat": "22.315682",
            "long": "114.214093"
        },
        "36A5F6842C55126E": {
            "name_en": "HONG KONG CHILDREN'S HOSPITAL",
            "lat": "22.315786",
            "long": "114.209517"
        },
        "1094B993AA8409D0": {
            "name_en": "SHING FUNG ROAD",
            "lat": "22.311992",
            "long": "114.207735"
        },
        "77BEA79A5FF7A21A": {
            "name_en": "STAR FERRY, HARBOUR CITY",
            "lat": "22.294304",
            "long": "114.169112"
        },
        "1B9CA570385CC6F2": {
            "name_en": "TSIM SHA TSUI POLICE STATION (N14)",
            "lat": "22.302619",
            "long": "114.171661"
        },
        "258EDF9D3C3FD200": {
            "name_en": "NELSON STREET MONG KOK (N62)",
            "lat": "22.317993",
            "long": "114.169513"
        },
        "99256D08CF861BA5": {
            "name_en": "BUTE STREET (N71), PIONEER CENTRE",
            "lat": "22.321592",
            "long": "114.168744"
        },
        "D0A763AFCDE36124": {
            "name_en": "PRINCE EDWARD STATION (N75), FLOWER MARKET",
            "lat": "22.325490",
            "long": "114.167954"
        },
        "0BE28656FCEAAE17": {
            "name_en": "FUK WA STREET REST GARDEN",
            "lat": "22.328428",
            "long": "114.166755"
        },
        "CCAC1239A80FFE6B": {
            "name_en": "UN CHAU STREET PEI HO STREET",
            "lat": "22.331449",
            "long": "114.164239"
        },
        "317CDFC0C1DB2ADF": {
            "name_en": "CAMP STREET",
            "lat": "22.334179",
            "long": "114.160722"
        },
        "9508A6CF0AF1E1B2": {
            "name_en": "TONKIN STREET",
            "lat": "22.335523",
            "long": "114.158985"
        },
        "B8B71BC8E2DDCA8D": {
            "name_en": "FAT TSEUNG STREET",
            "lat": "22.336966",
            "long": "114.157072"
        },
        "62AB7611613EF561": {
            "name_en": "UN CHAU SHOPPING CENTRE",
            "lat": "22.338497",
            "long": "114.155113"
        },
        "A1AA846971415968": {
            "name_en": "CHEUNG SHA WAN PATH (X33)",
            "lat": "22.338091",
            "long": "114.150935"
        },
        "70349D91EC82AFE1": {
            "name_en": "MEI FOO BBI (B4)",
            "lat": "22.336449",
            "long": "114.141577"
        },
        "E35B5F1B80E085E6": {
            "name_en": "NASSAU STREET",
            "lat": "22.338565",
            "long": "114.140480"
        },
        "EBEF10F95443B217": {
            "name_en": "LAI WAN ROAD",
            "lat": "22.339842",
            "long": "114.139735"
        },
        "75EF762BDAB6F5C3": {
            "name_en": "LAI CHI KOK BUS TERMINUS",
            "lat": "22.341713",
            "long": "114.137326"
        },
        "9AE6CD527594C632": {
            "name_en": "NASSAU STREET",
            "lat": "22.339406",
            "long": "114.140330"
        },
        "647AB0AD358F10DF": {
            "name_en": "MEI FOO BBI (C1)",
            "lat": "22.337132",
            "long": "114.141718"
        },
        "65DFF8BE0574FB35": {
            "name_en": "TAI NAN WEST STREET",
            "lat": "22.338379",
            "long": "114.148068"
        },
        "A19F3A433556AF0E": {
            "name_en": "KWONG CHEUNG STREET",
            "lat": "22.339518",
            "long": "114.151368"
        },
        "48E68D36FFC315F6": {
            "name_en": "HING WAH STREET",
            "lat": "22.339730",
            "long": "114.154827"
        },
        "0C82A7979D96D1FD": {
            "name_en": "CHEUNG FAT STREET",
            "lat": "22.338486",
            "long": "114.156253"
        },
        "FD43CB63B7E560F6": {
            "name_en": "TONKIN STREET",
            "lat": "22.337020",
            "long": "114.158323"
        },
        "FE5036CCAC908A19": {
            "name_en": "PRECIOUS BLOOD HOSPITAL",
            "lat": "22.334078",
            "long": "114.162090"
        },
        "3AE4D452A5105EFD": {
            "name_en": "TAI PO ROAD PEI HO STREET",
            "lat": "22.331958",
            "long": "114.164664"
        },
        "3906EA4ECAC6EEC0": {
            "name_en": "SAI YEUNG CHOI LANE",
            "lat": "22.329093",
            "long": "114.166687"
        },
        "F51CE770F087FDEC": {
            "name_en": "MONGKOK POLICE STATION (S5)",
            "lat": "22.324883",
            "long": "114.168357"
        },
        "33954A6034D48443": {
            "name_en": "HUNG FOOK STREET",
            "lat": "22.314399",
            "long": "114.187981"
        },
        "4F8B610B0A033DA3": {
            "name_en": "HOK YUEN STREET HUNG HOM",
            "lat": "22.310109",
            "long": "114.187748"
        },
        "9C65FAD146B82C8D": {
            "name_en": "HUNG HOM MARKET",
            "lat": "22.307387",
            "long": "114.187181"
        },
        "0B6F13BDDA1B8F91": {
            "name_en": "WALKER ROAD",
            "lat": "22.308104",
            "long": "114.184512"
        },
        "EAF0EAB6E30425BA": {
            "name_en": "DIOCESAN GIRLS' SCHOOL",
            "lat": "22.307568",
            "long": "114.172922"
        },
        "E50D6F218BC33CD0": {
            "name_en": "MAN MING LANE YAU MA TEI (N43)",
            "lat": "22.311476",
            "long": "114.170794"
        },
        "C9081B14523D8898": {
            "name_en": "TAI NAN WEST STREET",
            "lat": "22.335986",
            "long": "114.150463"
        },
        "BB5DEEAB7F39ECD9": {
            "name_en": "BANYAN GARDEN",
            "lat": "22.335146",
            "long": "114.147718"
        },
        "3856383C8A22904A": {
            "name_en": "MEI FOO BUS TERMINUS (T5)",
            "lat": "22.337175",
            "long": "114.140229"
        },
        "CC0D6DFEC686704E": {
            "name_en": "KWONG CHEUNG STREET",
            "lat": "22.339539",
            "long": "114.151440"
        },
        "A81F3E1AC5EDEB1F": {
            "name_en": "CHEUNG FAT STREET",
            "lat": "22.338432",
            "long": "114.156468"
        },
        "E29F5375308D6F5C": {
            "name_en": "TONKIN STREET",
            "lat": "22.336866",
            "long": "114.158522"
        },
        "45AA6AF583A32F40": {
            "name_en": "PRECIOUS BLOOD HOSPITAL",
            "lat": "22.334155",
            "long": "114.161989"
        },
        "A70DCB46EC98F43E": {
            "name_en": "PRINCE EDWARD STATION (S4), FLOWER MARKET",
            "lat": "22.325459",
            "long": "114.168234"
        },
        "80E2DB8AC142F626": {
            "name_en": "MONG KOK STATION (S11), ARGYLE CENTRE",
            "lat": "22.320081",
            "long": "114.169306"
        },
        "E93113C9CA615B0C": {
            "name_en": "SOY STREET MONG KOK (S21)",
            "lat": "22.316772",
            "long": "114.170023"
        },
        "D48E82AC2961C581": {
            "name_en": "MAN MING LANE YAU MA TEI (S31)",
            "lat": "22.312356",
            "long": "114.170893"
        },
        "CBF110E4B3E23071": {
            "name_en": "PUBLIC SQUARE STREET YAU MA TEI (S37)",
            "lat": "22.309786",
            "long": "114.171398"
        },
        "33506DF7A7D71391": {
            "name_en": "LABOUR TRIBUNAL",
            "lat": "22.307574",
            "long": "114.173538"
        },
        "97377AA89B45CD34": {
            "name_en": "KUN YAM STREET",
            "lat": "22.307555",
            "long": "114.185684"
        },
        "9D5EC5BD0A116058": {
            "name_en": "NGAU TAU KOK BUS TERMINUS",
            "lat": "22.323111",
            "long": "114.216755"
        },
        "9C884013EBA1D548": {
            "name_en": "KAI YIP ESTATE",
            "lat": "22.330292",
            "long": "114.209927"
        },
        "3B35E109EB76E70D": {
            "name_en": "NGAU CHI WAI BBI - HUNG NGOK HOUSE (H5)",
            "lat": "22.336996",
            "long": "114.206102"
        },
        "442D6A78E1015EAE": {
            "name_en": "SZE MEI STREET, SAN PO KONG",
            "lat": "22.337780",
            "long": "114.201904"
        },
        "B5BAED26BD56AC16": {
            "name_en": "KOWLOON CITY BBI - REGAL ORIENTAL HOTEL (B1)",
            "lat": "22.327515",
            "long": "114.191182"
        },
        "121EAC1C0D7D77BE": {
            "name_en": "FUK LO TSUN ROAD",
            "lat": "22.327224",
            "long": "114.187473"
        },
        "CC6ED4BD466C1CB0": {
            "name_en": "LA SALLE ROAD",
            "lat": "22.326376",
            "long": "114.182647"
        },
        "0A72152D4873A5C7": {
            "name_en": "ST. TERESA'S CHURCH",
            "lat": "22.325447",
            "long": "114.177493"
        },
        "FEF6F77B236DA7A5": {
            "name_en": "MEI FOO BUS TERMINUS (T4)",
            "lat": "22.337205",
            "long": "114.140153"
        },
        "854BC3A8D4DE6AA9": {
            "name_en": "MEI FOO BBI (C3)",
            "lat": "22.337256",
            "long": "114.141259"
        },
        "FB1DCF66C9508EBA": {
            "name_en": "TUNG CHAU WEST STREET",
            "lat": "22.337946",
            "long": "114.146776"
        },
        "277172A410622365": {
            "name_en": "WING LUNG STREET",
            "lat": "22.337708",
            "long": "114.157437"
        },
        "173B80CC8B075A71": {
            "name_en": "PRATAS STREET",
            "lat": "22.335943",
            "long": "114.159703"
        },
        "E7A17EFD6E7435AF": {
            "name_en": "WONG TAI SIN POLICE STATION",
            "lat": "22.339114",
            "long": "114.197038"
        },
        "DFAA3371878CEED2": {
            "name_en": "SZE MEI STREET, SAN PO KONG",
            "lat": "22.338348",
            "long": "114.201507"
        },
        "3BB1407BA61E0A9B": {
            "name_en": "CHOI HUNG BBI - KAM PIK HOUSE (L1)",
            "lat": "22.335522",
            "long": "114.204886"
        },
        "830588EB9A8D26EC": {
            "name_en": "AMOY GARDENS",
            "lat": "22.324283",
            "long": "114.215805"
        },
        "44AF4BBD0B0BB3A0": {
            "name_en": "CHEUNG SHA WAN (SO UK ESTATE) BUS TERMINUS",
            "lat": "22.340959",
            "long": "114.158650"
        },
        "BA03816A38B9DA7F": {
            "name_en": "KAI YIP ESTATE",
            "lat": "22.330268",
            "long": "114.210894"
        },
        "4BD5CE5106BB0697": {
            "name_en": "KOWLOON BAY STATION (EKCC)",
            "lat": "22.325601",
            "long": "114.214336"
        },
        "6465DE9EE57F6C94": {
            "name_en": "LOWER NGAU TAU KOK ESTATE",
            "lat": "22.321984",
            "long": "114.214628"
        },
        "3E73B73B12E25DCF": {
            "name_en": "KWUN TONG ROAD SITTING-OUT AREA",
            "lat": "22.318039",
            "long": "114.215032"
        },
        "0B8C52E4C34E3B64": {
            "name_en": "KWUN TONG BBI - KWUN TONG TOWN CENTRE (T5)",
            "lat": "22.313264",
            "long": "114.224346"
        },
        "144E9479168069DD": {
            "name_en": "KWUN TONG SWIMMING POOL (R2)",
            "lat": "22.310432",
            "long": "114.229545"
        },
        "7459D3AB11AFD6B5": {
            "name_en": "LAM TIN STATION",
            "lat": "22.306525",
            "long": "114.233772"
        },
        "9C839C3824F47A6A": {
            "name_en": "ST. ANTONIUS GIRLS' COLLEGE",
            "lat": "22.300362",
            "long": "114.238520"
        },
        "CB4BB0008A87E4FC": {
            "name_en": "YAU TONG ESTATE",
            "lat": "22.298144",
            "long": "114.239225"
        },
        "E4E008D61686FB33": {
            "name_en": "LEI YUE MUN ESTATE",
            "lat": "22.294744",
            "long": "114.239256"
        },
        "500EB63FD4A41F66": {
            "name_en": "KA WING STREET",
            "lat": "22.293859",
            "long": "114.238561"
        },
        "D024B008AB77435B": {
            "name_en": "YAU TONG BUS TERMINUS",
            "lat": "22.295827",
            "long": "114.238484"
        },
        "5309D748976029CB": {
            "name_en": "LEI YUE MUN PLAZA",
            "lat": "22.296392",
            "long": "114.239676"
        },
        "3C6DAB7267F9E54F": {
            "name_en": "YAU TONG ESTATE",
            "lat": "22.299326",
            "long": "114.238661"
        },
        "73E85E88E124EF2C": {
            "name_en": "ST. ANTONIUS GIRLS' COLLEGE",
            "lat": "22.301615",
            "long": "114.237487"
        },
        "2EF9764BE18FC290": {
            "name_en": "LAM TIN STATION",
            "lat": "22.305354",
            "long": "114.234128"
        },
        "F1A90CEE2B8C40CC": {
            "name_en": "KWUN TONG LAW COURTS (F2)",
            "lat": "22.309991",
            "long": "114.229553"
        },
        "015AD27DAC83E698": {
            "name_en": "KWUN TONG BBI - MILLENNIUM CITY (B8)",
            "lat": "22.313853",
            "long": "114.222017"
        },
        "BBDFF2D05E37EE61": {
            "name_en": "TING FU STREET, KWUN TONG",
            "lat": "22.316772",
            "long": "114.215491"
        },
        "3CE4A2049409A6DD": {
            "name_en": "PRINCE EDWARD STATION (N76), FLOWER MARKET",
            "lat": "22.325598",
            "long": "114.167935"
        },
        "E6ED785726AED4AE": {
            "name_en": "MAPLE STREET SHAM SHUI PO",
            "lat": "22.327562",
            "long": "114.166148"
        },
        "C13E41666B5A1394": {
            "name_en": "PEI HO STREET SHAM SHUI PO (X6)",
            "lat": "22.330543",
            "long": "114.162338"
        },
        "C6E9CA12DCD8F695": {
            "name_en": "YEE CHING COURT (X13)",
            "lat": "22.332425",
            "long": "114.159871"
        },
        "7C5377EE48AA1E91": {
            "name_en": "CHEUNG SHA WAN (LAI KOK ESTATE) BUS TERMINUS",
            "lat": "22.333548",
            "long": "114.156683"
        },
        "C91F41CD18797652": {
            "name_en": "YING WA COLLEGE",
            "lat": "22.330452",
            "long": "114.153960"
        },
        "5FBC215F6F58AC98": {
            "name_en": "FU CHEONG ESTATE",
            "lat": "22.327330",
            "long": "114.154676"
        },
        "7B3074F34B2D6D01": {
            "name_en": "NAM CHEONG ESTATE",
            "lat": "22.327351",
            "long": "114.156846"
        },
        "98AB21EAFF27FE09": {
            "name_en": "YEE KUK STREET SHAM SHUI PO",
            "lat": "22.328968",
            "long": "114.158310"
        },